{
"type": "FeatureCollection",
"name": "supermarkets",
"crs": { "type": "name", "properties": { "name": "urn:ogc:def:crs:OGC:1.3:CRS84" } },
"features": [
{ "type": "Feature", "properties": { "NAME": "Alami Supermarket", "NAME_EN": null, "MAN_MADE": null, "LEISURE": null, "AMENITY": null, "OFFICE": null, "SHOP": "supermarket", "TOURISM": null, "SPORT": null, "OSM_TYPE": "node", "OSM_ID": 49223448 }, "geometry": { "type": "Point", "coordinates": [ 32.4714117, 15.6074558 ] } },
{ "type": "Feature", "properties": { "NAME": "سوق المهندسين", "NAME_EN": "Muhandiseen Market", "MAN_MADE": null, "LEISURE": null, "AMENITY": null, "OFFICE": null, "SHOP": "supermarket", "TOURISM": null, "SPORT": null, "OSM_TYPE": "node", "OSM_ID": 49223556 }, "geometry": { "type": "Point", "coordinates": [ 32.4707217, 15.6082304 ] } },
{ "type": "Feature", "properties": { "NAME": "Al Hamid Supermarket", "NAME_EN": null, "MAN_MADE": null, "LEISURE": null, "AMENITY": null, "OFFICE": null, "SHOP": "supermarket", "TOURISM": null, "SPORT": null, "OSM_TYPE": "node", "OSM_ID": 693348603 }, "geometry": { "type": "Point", "coordinates": [ 32.4677088, 15.607556 ] } },
{ "type": "Feature", "properties": { "NAME": null, "NAME_EN": null, "MAN_MADE": null, "LEISURE": null, "AMENITY": null, "OFFICE": null, "SHOP": "supermarket", "TOURISM": null, "SPORT": null, "OSM_TYPE": "node", "OSM_ID": 693351420 }, "geometry": { "type": "Point", "coordinates": [ 32.5097229, 15.5992169 ] } },
{ "type": "Feature", "properties": { "NAME": "Latif Super Market", "NAME_EN": null, "MAN_MADE": null, "LEISURE": null, "AMENITY": null, "OFFICE": null, "SHOP": "supermarket", "TOURISM": null, "SPORT": null, "OSM_TYPE": "node", "OSM_ID": 1008158759 }, "geometry": { "type": "Point", "coordinates": [ 32.5740424, 15.5813234 ] } },
{ "type": "Feature", "properties": { "NAME": "Looli", "NAME_EN": null, "MAN_MADE": null, "LEISURE": null, "AMENITY": null, "OFFICE": null, "SHOP": "supermarket", "TOURISM": null, "SPORT": null, "OSM_TYPE": "node", "OSM_ID": 1415476818 }, "geometry": { "type": "Point", "coordinates": [ 32.5462102, 15.5777172 ] } },
{ "type": "Feature", "properties": { "NAME": "Al-Amarat Center 2", "NAME_EN": null, "MAN_MADE": null, "LEISURE": null, "AMENITY": null, "OFFICE": null, "SHOP": "supermarket", "TOURISM": null, "SPORT": null, "OSM_TYPE": "node", "OSM_ID": 1535838828 }, "geometry": { "type": "Point", "coordinates": [ 32.5683335, 15.5793711 ] } },
{ "type": "Feature", "properties": { "NAME": "Supermarket Elmoshtara", "NAME_EN": null, "MAN_MADE": null, "LEISURE": null, "AMENITY": null, "OFFICE": null, "SHOP": "supermarket", "TOURISM": null, "SPORT": null, "OSM_TYPE": "node", "OSM_ID": 1796979505 }, "geometry": { "type": "Point", "coordinates": [ 32.5393036, 15.5462085 ] } },
{ "type": "Feature", "properties": { "NAME": "لولو هايبرماركت", "NAME_EN": "Lulu HyperMarket", "MAN_MADE": null, "LEISURE": null, "AMENITY": null, "OFFICE": null, "SHOP": "supermarket", "TOURISM": null, "SPORT": null, "OSM_TYPE": "node", "OSM_ID": 1829276043 }, "geometry": { "type": "Point", "coordinates": [ 32.5715147, 15.5625601 ] } },
{ "type": "Feature", "properties": { "NAME": "Al Tasamooh", "NAME_EN": null, "MAN_MADE": null, "LEISURE": null, "AMENITY": null, "OFFICE": null, "SHOP": "supermarket", "TOURISM": null, "SPORT": null, "OSM_TYPE": "node", "OSM_ID": 1829281997 }, "geometry": { "type": "Point", "coordinates": [ 32.5698565, 15.571209 ] } },
{ "type": "Feature", "properties": { "NAME": "2&2 Cash and Carry", "NAME_EN": null, "MAN_MADE": null, "LEISURE": null, "AMENITY": null, "OFFICE": null, "SHOP": "supermarket", "TOURISM": null, "SPORT": null, "OSM_TYPE": "node", "OSM_ID": 1923940068 }, "geometry": { "type": "Point", "coordinates": [ 32.5730648, 15.5719044 ] } },
{ "type": "Feature", "properties": { "NAME": null, "NAME_EN": null, "MAN_MADE": null, "LEISURE": null, "AMENITY": null, "OFFICE": null, "SHOP": "supermarket", "TOURISM": null, "SPORT": null, "OSM_TYPE": "node", "OSM_ID": 2102571925 }, "geometry": { "type": "Point", "coordinates": [ 32.4696879, 15.607488 ] } },
{ "type": "Feature", "properties": { "NAME": "سوق اللفة", "NAME_EN": null, "MAN_MADE": null, "LEISURE": null, "AMENITY": null, "OFFICE": null, "SHOP": "supermarket", "TOURISM": null, "SPORT": null, "OSM_TYPE": "node", "OSM_ID": 2142309955 }, "geometry": { "type": "Point", "coordinates": [ 32.4830749, 15.4676926 ] } },
{ "type": "Feature", "properties": { "NAME": "الانفال سوبر ماركت", "NAME_EN": null, "MAN_MADE": null, "LEISURE": null, "AMENITY": null, "OFFICE": null, "SHOP": "supermarket", "TOURISM": null, "SPORT": null, "OSM_TYPE": "node", "OSM_ID": 2273551735 }, "geometry": { "type": "Point", "coordinates": [ 32.5402382, 15.6615758 ] } },
{ "type": "Feature", "properties": { "NAME": "Sana Supermarket", "NAME_EN": null, "MAN_MADE": null, "LEISURE": null, "AMENITY": null, "OFFICE": null, "SHOP": "supermarket", "TOURISM": null, "SPORT": null, "OSM_TYPE": "node", "OSM_ID": 2275185759 }, "geometry": { "type": "Point", "coordinates": [ 32.5607538, 15.62734 ] } },
{ "type": "Feature", "properties": { "NAME": "الاحسان", "NAME_EN": null, "MAN_MADE": null, "LEISURE": null, "AMENITY": null, "OFFICE": null, "SHOP": "supermarket", "TOURISM": null, "SPORT": null, "OSM_TYPE": "node", "OSM_ID": 2276657835 }, "geometry": { "type": "Point", "coordinates": [ 32.5220805, 15.6420453 ] } },
{ "type": "Feature", "properties": { "NAME": "بركات سوبرماركت", "NAME_EN": "Barakat Supermarket", "MAN_MADE": null, "LEISURE": null, "AMENITY": null, "OFFICE": null, "SHOP": "supermarket", "TOURISM": null, "SPORT": null, "OSM_TYPE": "node", "OSM_ID": 2276858001 }, "geometry": { "type": "Point", "coordinates": [ 32.5413339, 15.673348 ] } },
{ "type": "Feature", "properties": { "NAME": null, "NAME_EN": null, "MAN_MADE": null, "LEISURE": null, "AMENITY": null, "OFFICE": null, "SHOP": "supermarket", "TOURISM": null, "SPORT": null, "OSM_TYPE": "node", "OSM_ID": 2279509564 }, "geometry": { "type": "Point", "coordinates": [ 32.5484612, 15.672629 ] } },
{ "type": "Feature", "properties": { "NAME": "Sena Hypermarket سناء مول", "NAME_EN": null, "MAN_MADE": null, "LEISURE": null, "AMENITY": null, "OFFICE": null, "SHOP": "supermarket", "TOURISM": null, "SPORT": null, "OSM_TYPE": "node", "OSM_ID": 2380015305 }, "geometry": { "type": "Point", "coordinates": [ 32.5653404, 15.5789671 ] } },
{ "type": "Feature", "properties": { "NAME": "فال القمر للتسوق", "NAME_EN": "Fal Algamar Supermarket", "MAN_MADE": null, "LEISURE": null, "AMENITY": null, "OFFICE": null, "SHOP": "supermarket", "TOURISM": null, "SPORT": null, "OSM_TYPE": "node", "OSM_ID": 2747283407 }, "geometry": { "type": "Point", "coordinates": [ 32.4655007, 15.6064368 ] } },
{ "type": "Feature", "properties": { "NAME": "سوبرماركت التسامح", "NAME_EN": "El-Tasamoh Supermarket", "MAN_MADE": null, "LEISURE": null, "AMENITY": null, "OFFICE": null, "SHOP": "supermarket", "TOURISM": null, "SPORT": null, "OSM_TYPE": "node", "OSM_ID": 2978329833 }, "geometry": { "type": "Point", "coordinates": [ 32.5703881, 15.5419444 ] } },
{ "type": "Feature", "properties": { "NAME": null, "NAME_EN": null, "MAN_MADE": null, "LEISURE": null, "AMENITY": null, "OFFICE": null, "SHOP": "supermarket", "TOURISM": null, "SPORT": null, "OSM_TYPE": "node", "OSM_ID": 3065308202 }, "geometry": { "type": "Point", "coordinates": [ 32.5478445, 15.5441776 ] } },
{ "type": "Feature", "properties": { "NAME": "مزايا", "NAME_EN": null, "MAN_MADE": null, "LEISURE": null, "AMENITY": null, "OFFICE": null, "SHOP": "supermarket", "TOURISM": null, "SPORT": null, "OSM_TYPE": "node", "OSM_ID": 3381499409 }, "geometry": { "type": "Point", "coordinates": [ 32.5760463, 15.5563136 ] } },
{ "type": "Feature", "properties": { "NAME": "شركة الدرب الاخضر للسيراميك", "NAME_EN": null, "MAN_MADE": null, "LEISURE": null, "AMENITY": null, "OFFICE": null, "SHOP": "supermarket", "TOURISM": null, "SPORT": null, "OSM_TYPE": "node", "OSM_ID": 3398338373 }, "geometry": { "type": "Point", "coordinates": [ 32.5312787, 15.5776866 ] } },
{ "type": "Feature", "properties": { "NAME": "سوبر ماركت العطا", "NAME_EN": null, "MAN_MADE": null, "LEISURE": null, "AMENITY": null, "OFFICE": null, "SHOP": "supermarket", "TOURISM": null, "SPORT": null, "OSM_TYPE": "node", "OSM_ID": 3487439389 }, "geometry": { "type": "Point", "coordinates": [ 32.5198182, 15.5264275 ] } },
{ "type": "Feature", "properties": { "NAME": null, "NAME_EN": null, "MAN_MADE": null, "LEISURE": null, "AMENITY": null, "OFFICE": null, "SHOP": "supermarket", "TOURISM": null, "SPORT": null, "OSM_TYPE": "node", "OSM_ID": 3488572037 }, "geometry": { "type": "Point", "coordinates": [ 32.5082369, 15.5249166 ] } },
{ "type": "Feature", "properties": { "NAME": null, "NAME_EN": null, "MAN_MADE": null, "LEISURE": null, "AMENITY": null, "OFFICE": null, "SHOP": "supermarket", "TOURISM": null, "SPORT": null, "OSM_TYPE": "node", "OSM_ID": 3490661972 }, "geometry": { "type": "Point", "coordinates": [ 32.5342498, 15.5287053 ] } },
{ "type": "Feature", "properties": { "NAME": "Alwafa", "NAME_EN": null, "MAN_MADE": null, "LEISURE": null, "AMENITY": null, "OFFICE": null, "SHOP": "supermarket", "TOURISM": null, "SPORT": null, "OSM_TYPE": "node", "OSM_ID": 3506951767 }, "geometry": { "type": "Point", "coordinates": [ 32.571964, 15.5424733 ] } },
{ "type": "Feature", "properties": { "NAME": "دكان", "NAME_EN": null, "MAN_MADE": null, "LEISURE": null, "AMENITY": null, "OFFICE": null, "SHOP": "supermarket", "TOURISM": null, "SPORT": null, "OSM_TYPE": "node", "OSM_ID": 3507475597 }, "geometry": { "type": "Point", "coordinates": [ 32.4510667, 15.6742284 ] } },
{ "type": "Feature", "properties": { "NAME": "دكان", "NAME_EN": null, "MAN_MADE": null, "LEISURE": null, "AMENITY": null, "OFFICE": null, "SHOP": "supermarket", "TOURISM": null, "SPORT": null, "OSM_TYPE": "node", "OSM_ID": 3507476175 }, "geometry": { "type": "Point", "coordinates": [ 32.4511163, 15.6749424 ] } },
{ "type": "Feature", "properties": { "NAME": "الريان", "NAME_EN": "Rayan", "MAN_MADE": null, "LEISURE": null, "AMENITY": null, "OFFICE": null, "SHOP": "supermarket", "TOURISM": null, "SPORT": null, "OSM_TYPE": "node", "OSM_ID": 3684895252 }, "geometry": { "type": "Point", "coordinates": [ 32.5696262, 15.5771698 ] } },
{ "type": "Feature", "properties": { "NAME": "باشدار", "NAME_EN": null, "MAN_MADE": null, "LEISURE": null, "AMENITY": null, "OFFICE": null, "SHOP": "supermarket", "TOURISM": null, "SPORT": null, "OSM_TYPE": "node", "OSM_ID": 3748170476 }, "geometry": { "type": "Point", "coordinates": [ 32.5358842, 15.5680852 ] } },
{ "type": "Feature", "properties": { "NAME": null, "NAME_EN": null, "MAN_MADE": null, "LEISURE": null, "AMENITY": null, "OFFICE": null, "SHOP": "supermarket", "TOURISM": null, "SPORT": null, "OSM_TYPE": "node", "OSM_ID": 3832531147 }, "geometry": { "type": "Point", "coordinates": [ 32.4968651, 15.5274993 ] } },
{ "type": "Feature", "properties": { "NAME": "سوبرماركت الانجاز", "NAME_EN": null, "MAN_MADE": null, "LEISURE": null, "AMENITY": null, "OFFICE": null, "SHOP": "supermarket", "TOURISM": null, "SPORT": null, "OSM_TYPE": "node", "OSM_ID": 3832531149 }, "geometry": { "type": "Point", "coordinates": [ 32.496295, 15.5307544 ] } },
{ "type": "Feature", "properties": { "NAME": "Abdin Centre", "NAME_EN": null, "MAN_MADE": null, "LEISURE": null, "AMENITY": null, "OFFICE": null, "SHOP": "supermarket", "TOURISM": null, "SPORT": null, "OSM_TYPE": "node", "OSM_ID": 3832531150 }, "geometry": { "type": "Point", "coordinates": [ 32.4974455, 15.5264682 ] } },
{ "type": "Feature", "properties": { "NAME": "Alsafwa Supermarket", "NAME_EN": null, "MAN_MADE": null, "LEISURE": null, "AMENITY": null, "OFFICE": null, "SHOP": "supermarket", "TOURISM": null, "SPORT": null, "OSM_TYPE": "node", "OSM_ID": 4121096991 }, "geometry": { "type": "Point", "coordinates": [ 32.5313547, 15.6474066 ] } },
{ "type": "Feature", "properties": { "NAME": "عابدين", "NAME_EN": null, "MAN_MADE": null, "LEISURE": null, "AMENITY": null, "OFFICE": null, "SHOP": "supermarket", "TOURISM": null, "SPORT": null, "OSM_TYPE": "node", "OSM_ID": 4262823190 }, "geometry": { "type": "Point", "coordinates": [ 32.48288, 15.6564654 ] } },
{ "type": "Feature", "properties": { "NAME": "Alhawi", "NAME_EN": null, "MAN_MADE": null, "LEISURE": null, "AMENITY": null, "OFFICE": null, "SHOP": "supermarket", "TOURISM": null, "SPORT": null, "OSM_TYPE": "node", "OSM_ID": 4269676491 }, "geometry": { "type": "Point", "coordinates": [ 32.5441506, 15.5797201 ] } },
{ "type": "Feature", "properties": { "NAME": "دكان الهادي", "NAME_EN": null, "MAN_MADE": null, "LEISURE": null, "AMENITY": null, "OFFICE": null, "SHOP": "supermarket", "TOURISM": null, "SPORT": null, "OSM_TYPE": "node", "OSM_ID": 4342964890 }, "geometry": { "type": "Point", "coordinates": [ 32.5157023, 15.648746 ] } },
{ "type": "Feature", "properties": { "NAME": "اسواق الدوحة", "NAME_EN": null, "MAN_MADE": null, "LEISURE": null, "AMENITY": null, "OFFICE": null, "SHOP": "supermarket", "TOURISM": null, "SPORT": null, "OSM_TYPE": "node", "OSM_ID": 4344304804 }, "geometry": { "type": "Point", "coordinates": [ 32.5018056, 15.5235182 ] } },
{ "type": "Feature", "properties": { "NAME": "سوق الشجرة", "NAME_EN": null, "MAN_MADE": null, "LEISURE": null, "AMENITY": null, "OFFICE": null, "SHOP": "supermarket", "TOURISM": null, "SPORT": null, "OSM_TYPE": "node", "OSM_ID": 4375919418 }, "geometry": { "type": "Point", "coordinates": [ 32.4994054, 15.6525431 ] } },
{ "type": "Feature", "properties": { "NAME": "الحاوي سوبر ماركت", "NAME_EN": null, "MAN_MADE": null, "LEISURE": null, "AMENITY": null, "OFFICE": null, "SHOP": "supermarket", "TOURISM": null, "SPORT": null, "OSM_TYPE": "node", "OSM_ID": 4464367300 }, "geometry": { "type": "Point", "coordinates": [ 32.5443948, 15.5797461 ] } },
{ "type": "Feature", "properties": { "NAME": "Home Care", "NAME_EN": null, "MAN_MADE": null, "LEISURE": null, "AMENITY": null, "OFFICE": null, "SHOP": "supermarket", "TOURISM": null, "SPORT": null, "OSM_TYPE": "node", "OSM_ID": 4464632492 }, "geometry": { "type": "Point", "coordinates": [ 32.5462815, 15.5786132 ] } },
{ "type": "Feature", "properties": { "NAME": null, "NAME_EN": null, "MAN_MADE": null, "LEISURE": null, "AMENITY": null, "OFFICE": null, "SHOP": "supermarket", "TOURISM": null, "SPORT": null, "OSM_TYPE": "node", "OSM_ID": 4548419799 }, "geometry": { "type": "Point", "coordinates": [ 32.5355727, 15.5753028 ] } },
{ "type": "Feature", "properties": { "NAME": "بقالة الزبير", "NAME_EN": "بقالة الزبير", "MAN_MADE": null, "LEISURE": null, "AMENITY": null, "OFFICE": null, "SHOP": "supermarket", "TOURISM": null, "SPORT": null, "OSM_TYPE": "node", "OSM_ID": 4548419800 }, "geometry": { "type": "Point", "coordinates": [ 32.5354771, 15.5757012 ] } },
{ "type": "Feature", "properties": { "NAME": "مركز الهرم التجارى", "NAME_EN": null, "MAN_MADE": null, "LEISURE": null, "AMENITY": null, "OFFICE": null, "SHOP": "supermarket", "TOURISM": null, "SPORT": null, "OSM_TYPE": "node", "OSM_ID": 4548419809 }, "geometry": { "type": "Point", "coordinates": [ 32.5785836, 15.5120944 ] } },
{ "type": "Feature", "properties": { "NAME": "الزيتونة سوبر ماركت", "NAME_EN": "الزيتونة سوبر ماركت", "MAN_MADE": null, "LEISURE": null, "AMENITY": null, "OFFICE": null, "SHOP": "supermarket", "TOURISM": null, "SPORT": null, "OSM_TYPE": "node", "OSM_ID": 4548419933 }, "geometry": { "type": "Point", "coordinates": [ 32.5259851, 15.5847454 ] } },
{ "type": "Feature", "properties": { "NAME": "البلوشي للبيع المخفض", "NAME_EN": "البلوشي للبيع المخفض", "MAN_MADE": null, "LEISURE": null, "AMENITY": null, "OFFICE": null, "SHOP": "supermarket", "TOURISM": null, "SPORT": null, "OSM_TYPE": "node", "OSM_ID": 4548419934 }, "geometry": { "type": "Point", "coordinates": [ 32.5675653, 15.503351 ] } },
{ "type": "Feature", "properties": { "NAME": null, "NAME_EN": null, "MAN_MADE": null, "LEISURE": null, "AMENITY": null, "OFFICE": null, "SHOP": "supermarket", "TOURISM": null, "SPORT": null, "OSM_TYPE": "node", "OSM_ID": 4548439408 }, "geometry": { "type": "Point", "coordinates": [ 32.5376039, 15.5724677 ] } },
{ "type": "Feature", "properties": { "NAME": "بقالة ابومصعب", "NAME_EN": "بقالة ابومصعب", "MAN_MADE": null, "LEISURE": null, "AMENITY": null, "OFFICE": null, "SHOP": "supermarket", "TOURISM": null, "SPORT": null, "OSM_TYPE": "node", "OSM_ID": 4548448617 }, "geometry": { "type": "Point", "coordinates": [ 32.5781553, 15.5069448 ] } },
{ "type": "Feature", "properties": { "NAME": "ابوعمر للبيع المخفض", "NAME_EN": null, "MAN_MADE": null, "LEISURE": null, "AMENITY": null, "OFFICE": null, "SHOP": "supermarket", "TOURISM": null, "SPORT": null, "OSM_TYPE": "node", "OSM_ID": 4548448618 }, "geometry": { "type": "Point", "coordinates": [ 32.5794808, 15.5071874 ] } },
{ "type": "Feature", "properties": { "NAME": "الحياة للتسوق", "NAME_EN": "الحياة للتسوق", "MAN_MADE": null, "LEISURE": null, "AMENITY": null, "OFFICE": null, "SHOP": "supermarket", "TOURISM": null, "SPORT": null, "OSM_TYPE": "node", "OSM_ID": 4548448623 }, "geometry": { "type": "Point", "coordinates": [ 32.5370592, 15.5906232 ] } },
{ "type": "Feature", "properties": { "NAME": null, "NAME_EN": null, "MAN_MADE": null, "LEISURE": null, "AMENITY": null, "OFFICE": null, "SHOP": "supermarket", "TOURISM": null, "SPORT": null, "OSM_TYPE": "node", "OSM_ID": 4548450093 }, "geometry": { "type": "Point", "coordinates": [ 32.5350118, 15.5733114 ] } },
{ "type": "Feature", "properties": { "NAME": null, "NAME_EN": null, "MAN_MADE": null, "LEISURE": null, "AMENITY": null, "OFFICE": null, "SHOP": "supermarket", "TOURISM": null, "SPORT": null, "OSM_TYPE": "node", "OSM_ID": 4548450111 }, "geometry": { "type": "Point", "coordinates": [ 32.5369206, 15.5756515 ] } },
{ "type": "Feature", "properties": { "NAME": null, "NAME_EN": null, "MAN_MADE": null, "LEISURE": null, "AMENITY": null, "OFFICE": null, "SHOP": "supermarket", "TOURISM": null, "SPORT": null, "OSM_TYPE": "node", "OSM_ID": 4548450390 }, "geometry": { "type": "Point", "coordinates": [ 32.5373133, 15.5741019 ] } },
{ "type": "Feature", "properties": { "NAME": "منفذ جدو للبيع المخفض", "NAME_EN": "منفذ جدو للبيع المخفض", "MAN_MADE": null, "LEISURE": null, "AMENITY": null, "OFFICE": null, "SHOP": "supermarket", "TOURISM": null, "SPORT": null, "OSM_TYPE": "node", "OSM_ID": 4548450398 }, "geometry": { "type": "Point", "coordinates": [ 32.541262, 15.532472 ] } },
{ "type": "Feature", "properties": { "NAME": null, "NAME_EN": null, "MAN_MADE": null, "LEISURE": null, "AMENITY": null, "OFFICE": null, "SHOP": "supermarket", "TOURISM": null, "SPORT": null, "OSM_TYPE": "node", "OSM_ID": 4548454699 }, "geometry": { "type": "Point", "coordinates": [ 32.5247718, 15.5838737 ] } },
{ "type": "Feature", "properties": { "NAME": "نوره للتسوق", "NAME_EN": "نوره للتسوق", "MAN_MADE": null, "LEISURE": null, "AMENITY": null, "OFFICE": null, "SHOP": "supermarket", "TOURISM": null, "SPORT": null, "OSM_TYPE": "node", "OSM_ID": 4548454701 }, "geometry": { "type": "Point", "coordinates": [ 32.5783423, 15.5050881 ] } },
{ "type": "Feature", "properties": { "NAME": "سوبر ماركت جدو", "NAME_EN": "سوبر ماركت جدو", "MAN_MADE": null, "LEISURE": null, "AMENITY": null, "OFFICE": null, "SHOP": "supermarket", "TOURISM": null, "SPORT": null, "OSM_TYPE": "node", "OSM_ID": 4548454703 }, "geometry": { "type": "Point", "coordinates": [ 32.5375175, 15.5730343 ] } },
{ "type": "Feature", "properties": { "NAME": "بقالة الإحسان", "NAME_EN": "بقالة الإحسان", "MAN_MADE": null, "LEISURE": null, "AMENITY": null, "OFFICE": null, "SHOP": "supermarket", "TOURISM": null, "SPORT": null, "OSM_TYPE": "node", "OSM_ID": 4548458534 }, "geometry": { "type": "Point", "coordinates": [ 32.5706154, 15.5039266 ] } },
{ "type": "Feature", "properties": { "NAME": "الرحاب سوبر ماركت", "NAME_EN": null, "MAN_MADE": null, "LEISURE": null, "AMENITY": null, "OFFICE": null, "SHOP": "supermarket", "TOURISM": null, "SPORT": null, "OSM_TYPE": "node", "OSM_ID": 4548458735 }, "geometry": { "type": "Point", "coordinates": [ 32.579416, 15.507724 ] } },
{ "type": "Feature", "properties": { "NAME": "العوالي", "NAME_EN": null, "MAN_MADE": null, "LEISURE": null, "AMENITY": null, "OFFICE": null, "SHOP": "supermarket", "TOURISM": null, "SPORT": null, "OSM_TYPE": "node", "OSM_ID": 4548459731 }, "geometry": { "type": "Point", "coordinates": [ 32.5343886, 15.5749503 ] } },
{ "type": "Feature", "properties": { "NAME": null, "NAME_EN": null, "MAN_MADE": null, "LEISURE": null, "AMENITY": null, "OFFICE": null, "SHOP": "supermarket", "TOURISM": null, "SPORT": null, "OSM_TYPE": "node", "OSM_ID": 4548466990 }, "geometry": { "type": "Point", "coordinates": [ 32.5806331, 15.5064881 ] } },
{ "type": "Feature", "properties": { "NAME": null, "NAME_EN": null, "MAN_MADE": null, "LEISURE": null, "AMENITY": null, "OFFICE": null, "SHOP": "supermarket", "TOURISM": null, "SPORT": null, "OSM_TYPE": "node", "OSM_ID": 4548473790 }, "geometry": { "type": "Point", "coordinates": [ 32.5360134, 15.5745987 ] } },
{ "type": "Feature", "properties": { "NAME": null, "NAME_EN": null, "MAN_MADE": null, "LEISURE": null, "AMENITY": null, "OFFICE": null, "SHOP": "supermarket", "TOURISM": null, "SPORT": null, "OSM_TYPE": "node", "OSM_ID": 4548473798 }, "geometry": { "type": "Point", "coordinates": [ 32.5375636, 15.5716399 ] } },
{ "type": "Feature", "properties": { "NAME": null, "NAME_EN": null, "MAN_MADE": null, "LEISURE": null, "AMENITY": null, "OFFICE": null, "SHOP": "supermarket", "TOURISM": null, "SPORT": null, "OSM_TYPE": "node", "OSM_ID": 4548473802 }, "geometry": { "type": "Point", "coordinates": [ 32.547718, 15.5483331 ] } },
{ "type": "Feature", "properties": { "NAME": null, "NAME_EN": null, "MAN_MADE": null, "LEISURE": null, "AMENITY": null, "OFFICE": null, "SHOP": "supermarket", "TOURISM": null, "SPORT": null, "OSM_TYPE": "node", "OSM_ID": 4548473993 }, "geometry": { "type": "Point", "coordinates": [ 32.5377851, 15.5705138 ] } },
{ "type": "Feature", "properties": { "NAME": "ابقالة بوحمزة", "NAME_EN": "ابقالة بوحمزة", "MAN_MADE": null, "LEISURE": null, "AMENITY": null, "OFFICE": null, "SHOP": "supermarket", "TOURISM": null, "SPORT": null, "OSM_TYPE": "node", "OSM_ID": 4548474195 }, "geometry": { "type": "Point", "coordinates": [ 32.5412183, 15.5881595 ] } },
{ "type": "Feature", "properties": { "NAME": null, "NAME_EN": null, "MAN_MADE": null, "LEISURE": null, "AMENITY": null, "OFFICE": null, "SHOP": "supermarket", "TOURISM": null, "SPORT": null, "OSM_TYPE": "node", "OSM_ID": 4548474290 }, "geometry": { "type": "Point", "coordinates": [ 32.5359766, 15.5733097 ] } },
{ "type": "Feature", "properties": { "NAME": null, "NAME_EN": null, "MAN_MADE": null, "LEISURE": null, "AMENITY": null, "OFFICE": null, "SHOP": "supermarket", "TOURISM": null, "SPORT": null, "OSM_TYPE": "node", "OSM_ID": 4548474291 }, "geometry": { "type": "Point", "coordinates": [ 32.5374563, 15.5747635 ] } },
{ "type": "Feature", "properties": { "NAME": null, "NAME_EN": null, "MAN_MADE": null, "LEISURE": null, "AMENITY": null, "OFFICE": null, "SHOP": "supermarket", "TOURISM": null, "SPORT": null, "OSM_TYPE": "node", "OSM_ID": 4548474390 }, "geometry": { "type": "Point", "coordinates": [ 32.5360102, 15.5736897 ] } },
{ "type": "Feature", "properties": { "NAME": "بقالة ابوسعاده", "NAME_EN": "بقالة ابوسعاده", "MAN_MADE": null, "LEISURE": null, "AMENITY": null, "OFFICE": null, "SHOP": "supermarket", "TOURISM": null, "SPORT": null, "OSM_TYPE": "node", "OSM_ID": 4548474489 }, "geometry": { "type": "Point", "coordinates": [ 32.5353525, 15.574986 ] } },
{ "type": "Feature", "properties": { "NAME": null, "NAME_EN": null, "MAN_MADE": null, "LEISURE": null, "AMENITY": null, "OFFICE": null, "SHOP": "supermarket", "TOURISM": null, "SPORT": null, "OSM_TYPE": "node", "OSM_ID": 4556298291 }, "geometry": { "type": "Point", "coordinates": [ 32.5335525, 15.5753682 ] } },
{ "type": "Feature", "properties": { "NAME": "مركز بيع مخفض", "NAME_EN": "مركز بيع مخفض", "MAN_MADE": null, "LEISURE": null, "AMENITY": null, "OFFICE": null, "SHOP": "supermarket", "TOURISM": null, "SPORT": null, "OSM_TYPE": "node", "OSM_ID": 4559852990 }, "geometry": { "type": "Point", "coordinates": [ 32.5755162, 15.5046876 ] } },
{ "type": "Feature", "properties": { "NAME": "بقالة سبأ", "NAME_EN": "بقالة سبأ", "MAN_MADE": null, "LEISURE": null, "AMENITY": null, "OFFICE": null, "SHOP": "supermarket", "TOURISM": null, "SPORT": null, "OSM_TYPE": "node", "OSM_ID": 4561796091 }, "geometry": { "type": "Point", "coordinates": [ 32.5796809, 15.5060926 ] } },
{ "type": "Feature", "properties": { "NAME": null, "NAME_EN": null, "MAN_MADE": null, "LEISURE": null, "AMENITY": null, "OFFICE": null, "SHOP": "supermarket", "TOURISM": null, "SPORT": null, "OSM_TYPE": "node", "OSM_ID": 4561796092 }, "geometry": { "type": "Point", "coordinates": [ 32.5818551, 15.5069112 ] } },
{ "type": "Feature", "properties": { "NAME": null, "NAME_EN": null, "MAN_MADE": null, "LEISURE": null, "AMENITY": null, "OFFICE": null, "SHOP": "supermarket", "TOURISM": null, "SPORT": null, "OSM_TYPE": "node", "OSM_ID": 4561951690 }, "geometry": { "type": "Point", "coordinates": [ 32.5269925, 15.5842636 ] } },
{ "type": "Feature", "properties": { "NAME": "سوبر ماركت", "NAME_EN": "سوبر ماركت", "MAN_MADE": null, "LEISURE": null, "AMENITY": null, "OFFICE": null, "SHOP": "supermarket", "TOURISM": null, "SPORT": null, "OSM_TYPE": "node", "OSM_ID": 4561951691 }, "geometry": { "type": "Point", "coordinates": [ 32.5273859, 15.583306 ] } },
{ "type": "Feature", "properties": { "NAME": "بقالة اولاد النوراب", "NAME_EN": "بقالة اولاد النوراب", "MAN_MADE": null, "LEISURE": null, "AMENITY": null, "OFFICE": null, "SHOP": "supermarket", "TOURISM": null, "SPORT": null, "OSM_TYPE": "node", "OSM_ID": 4561954089 }, "geometry": { "type": "Point", "coordinates": [ 32.524936, 15.5837556 ] } },
{ "type": "Feature", "properties": { "NAME": "سوبر ماركت", "NAME_EN": "سوبر ماركت", "MAN_MADE": null, "LEISURE": null, "AMENITY": null, "OFFICE": null, "SHOP": "supermarket", "TOURISM": null, "SPORT": null, "OSM_TYPE": "node", "OSM_ID": 4561972389 }, "geometry": { "type": "Point", "coordinates": [ 32.5246423, 15.5849085 ] } },
{ "type": "Feature", "properties": { "NAME": "بقالة الجيلي", "NAME_EN": "بقالة الجيلي", "MAN_MADE": null, "LEISURE": null, "AMENITY": null, "OFFICE": null, "SHOP": "supermarket", "TOURISM": null, "SPORT": null, "OSM_TYPE": "node", "OSM_ID": 4561972589 }, "geometry": { "type": "Point", "coordinates": [ 32.5246723, 15.5846927 ] } },
{ "type": "Feature", "properties": { "NAME": "الانفال للتسوق", "NAME_EN": "Alanfal", "MAN_MADE": null, "LEISURE": null, "AMENITY": null, "OFFICE": null, "SHOP": "supermarket", "TOURISM": null, "SPORT": null, "OSM_TYPE": "node", "OSM_ID": 4586990489 }, "geometry": { "type": "Point", "coordinates": [ 32.5709425, 15.5960801 ] } },
{ "type": "Feature", "properties": { "NAME": "سوبرماركت الاحسان", "NAME_EN": null, "MAN_MADE": null, "LEISURE": null, "AMENITY": null, "OFFICE": null, "SHOP": "supermarket", "TOURISM": null, "SPORT": null, "OSM_TYPE": "node", "OSM_ID": 4624554690 }, "geometry": { "type": "Point", "coordinates": [ 32.6195593, 15.6102021 ] } },
{ "type": "Feature", "properties": { "NAME": "الستين سنتر", "NAME_EN": null, "MAN_MADE": null, "LEISURE": null, "AMENITY": null, "OFFICE": null, "SHOP": "supermarket", "TOURISM": null, "SPORT": null, "OSM_TYPE": "node", "OSM_ID": 4625443495 }, "geometry": { "type": "Point", "coordinates": [ 32.5743629, 15.5875962 ] } },
{ "type": "Feature", "properties": { "NAME": "سوبر ماركت المنى", "NAME_EN": null, "MAN_MADE": null, "LEISURE": null, "AMENITY": null, "OFFICE": null, "SHOP": "supermarket", "TOURISM": null, "SPORT": null, "OSM_TYPE": "node", "OSM_ID": 4625455893 }, "geometry": { "type": "Point", "coordinates": [ 32.5753983, 15.5882873 ] } },
{ "type": "Feature", "properties": { "NAME": "جوهرة الستين للتسوق", "NAME_EN": null, "MAN_MADE": null, "LEISURE": null, "AMENITY": null, "OFFICE": null, "SHOP": "supermarket", "TOURISM": null, "SPORT": null, "OSM_TYPE": "node", "OSM_ID": 4627872090 }, "geometry": { "type": "Point", "coordinates": [ 32.579905, 15.557323 ] } },
{ "type": "Feature", "properties": { "NAME": "سوبرماركت الرضا", "NAME_EN": null, "MAN_MADE": null, "LEISURE": null, "AMENITY": null, "OFFICE": null, "SHOP": "supermarket", "TOURISM": null, "SPORT": null, "OSM_TYPE": "node", "OSM_ID": 4627917989 }, "geometry": { "type": "Point", "coordinates": [ 32.5595999, 15.6207869 ] } },
{ "type": "Feature", "properties": { "NAME": "قواريرا ٣", "NAME_EN": null, "MAN_MADE": null, "LEISURE": null, "AMENITY": null, "OFFICE": null, "SHOP": "supermarket", "TOURISM": null, "SPORT": null, "OSM_TYPE": "node", "OSM_ID": 4629088690 }, "geometry": { "type": "Point", "coordinates": [ 32.625449, 15.6093 ] } },
{ "type": "Feature", "properties": { "NAME": "سوبر الستين سيتي سنتر", "NAME_EN": null, "MAN_MADE": null, "LEISURE": null, "AMENITY": null, "OFFICE": null, "SHOP": "supermarket", "TOURISM": null, "SPORT": null, "OSM_TYPE": "node", "OSM_ID": 4629153990 }, "geometry": { "type": "Point", "coordinates": [ 32.5757551, 15.5819089 ] } },
{ "type": "Feature", "properties": { "NAME": "المجمع الذهبي للمواد الغذائية", "NAME_EN": null, "MAN_MADE": null, "LEISURE": null, "AMENITY": null, "OFFICE": null, "SHOP": "supermarket", "TOURISM": null, "SPORT": null, "OSM_TYPE": "node", "OSM_ID": 4629220590 }, "geometry": { "type": "Point", "coordinates": [ 32.5762132, 15.5800769 ] } },
{ "type": "Feature", "properties": { "NAME": "مركز سمير للمواد الغذائية", "NAME_EN": null, "MAN_MADE": null, "LEISURE": null, "AMENITY": null, "OFFICE": null, "SHOP": "supermarket", "TOURISM": null, "SPORT": null, "OSM_TYPE": "node", "OSM_ID": 4629248290 }, "geometry": { "type": "Point", "coordinates": [ 32.6272556, 15.6103554 ] } },
{ "type": "Feature", "properties": { "NAME": "مجمع أبو أية التجاري", "NAME_EN": null, "MAN_MADE": null, "LEISURE": null, "AMENITY": null, "OFFICE": null, "SHOP": "supermarket", "TOURISM": null, "SPORT": null, "OSM_TYPE": "node", "OSM_ID": 4629280289 }, "geometry": { "type": "Point", "coordinates": [ 32.5767668, 15.5759195 ] } },
{ "type": "Feature", "properties": { "NAME": "مركز قزح التجاري", "NAME_EN": null, "MAN_MADE": null, "LEISURE": null, "AMENITY": null, "OFFICE": null, "SHOP": "supermarket", "TOURISM": null, "SPORT": null, "OSM_TYPE": "node", "OSM_ID": 4629280790 }, "geometry": { "type": "Point", "coordinates": [ 32.583038, 15.536677 ] } },
{ "type": "Feature", "properties": { "NAME": "سوبرماركت الواحة", "NAME_EN": null, "MAN_MADE": null, "LEISURE": null, "AMENITY": null, "OFFICE": null, "SHOP": "supermarket", "TOURISM": null, "SPORT": null, "OSM_TYPE": "node", "OSM_ID": 4633226290 }, "geometry": { "type": "Point", "coordinates": [ 32.5598514, 15.5474858 ] } },
{ "type": "Feature", "properties": { "NAME": "مجمع مكة التجاري", "NAME_EN": null, "MAN_MADE": null, "LEISURE": null, "AMENITY": null, "OFFICE": null, "SHOP": "supermarket", "TOURISM": null, "SPORT": null, "OSM_TYPE": "node", "OSM_ID": 4633226291 }, "geometry": { "type": "Point", "coordinates": [ 32.5637006, 15.5478254 ] } },
{ "type": "Feature", "properties": { "NAME": "سوبر ماركت الخيمة", "NAME_EN": null, "MAN_MADE": null, "LEISURE": null, "AMENITY": null, "OFFICE": null, "SHOP": "supermarket", "TOURISM": null, "SPORT": null, "OSM_TYPE": "node", "OSM_ID": 4633226292 }, "geometry": { "type": "Point", "coordinates": [ 32.5652208, 15.5539058 ] } },
{ "type": "Feature", "properties": { "NAME": "بقالة الملتقى", "NAME_EN": null, "MAN_MADE": null, "LEISURE": null, "AMENITY": null, "OFFICE": null, "SHOP": "supermarket", "TOURISM": null, "SPORT": null, "OSM_TYPE": "node", "OSM_ID": 4633294690 }, "geometry": { "type": "Point", "coordinates": [ 32.5663405, 15.5481922 ] } },
{ "type": "Feature", "properties": { "NAME": "مركز الصفوة التجاري", "NAME_EN": null, "MAN_MADE": null, "LEISURE": null, "AMENITY": null, "OFFICE": null, "SHOP": "supermarket", "TOURISM": null, "SPORT": null, "OSM_TYPE": "node", "OSM_ID": 4633303390 }, "geometry": { "type": "Point", "coordinates": [ 32.5742816, 15.5538069 ] } },
{ "type": "Feature", "properties": { "NAME": "قواريرا ١", "NAME_EN": null, "MAN_MADE": null, "LEISURE": null, "AMENITY": null, "OFFICE": null, "SHOP": "supermarket", "TOURISM": null, "SPORT": null, "OSM_TYPE": "node", "OSM_ID": 4634637990 }, "geometry": { "type": "Point", "coordinates": [ 32.5825682, 15.5396008 ] } },
{ "type": "Feature", "properties": { "NAME": "ميار للتسوق", "NAME_EN": null, "MAN_MADE": null, "LEISURE": null, "AMENITY": null, "OFFICE": null, "SHOP": "supermarket", "TOURISM": null, "SPORT": null, "OSM_TYPE": "node", "OSM_ID": 4634685901 }, "geometry": { "type": "Point", "coordinates": [ 32.5772093, 15.5707379 ] } },
{ "type": "Feature", "properties": { "NAME": "تفاؤل للتسوق", "NAME_EN": null, "MAN_MADE": null, "LEISURE": null, "AMENITY": null, "OFFICE": null, "SHOP": "supermarket", "TOURISM": null, "SPORT": null, "OSM_TYPE": "node", "OSM_ID": 4634742415 }, "geometry": { "type": "Point", "coordinates": [ 32.6138502, 15.5989165 ] } },
{ "type": "Feature", "properties": { "NAME": "Model curtains", "NAME_EN": null, "MAN_MADE": null, "LEISURE": null, "AMENITY": null, "OFFICE": null, "SHOP": "supermarket", "TOURISM": null, "SPORT": null, "OSM_TYPE": "node", "OSM_ID": 4634743704 }, "geometry": { "type": "Point", "coordinates": [ 32.573718, 15.591874 ] } },
{ "type": "Feature", "properties": { "NAME": "One mart", "NAME_EN": null, "MAN_MADE": null, "LEISURE": null, "AMENITY": null, "OFFICE": null, "SHOP": "supermarket", "TOURISM": null, "SPORT": null, "OSM_TYPE": "node", "OSM_ID": 4634744508 }, "geometry": { "type": "Point", "coordinates": [ 32.5746463, 15.5859525 ] } },
{ "type": "Feature", "properties": { "NAME": "بقالة الطيبات", "NAME_EN": null, "MAN_MADE": null, "LEISURE": null, "AMENITY": null, "OFFICE": null, "SHOP": "supermarket", "TOURISM": null, "SPORT": null, "OSM_TYPE": "node", "OSM_ID": 4634756314 }, "geometry": { "type": "Point", "coordinates": [ 32.577513, 15.597632 ] } },
{ "type": "Feature", "properties": { "NAME": "مروة سنتر سوبرماركت", "NAME_EN": null, "MAN_MADE": null, "LEISURE": null, "AMENITY": null, "OFFICE": null, "SHOP": "supermarket", "TOURISM": null, "SPORT": null, "OSM_TYPE": "node", "OSM_ID": 4634756317 }, "geometry": { "type": "Point", "coordinates": [ 32.5734969, 15.5935063 ] } },
{ "type": "Feature", "properties": { "NAME": "بقالة سيف وي", "NAME_EN": null, "MAN_MADE": null, "LEISURE": null, "AMENITY": null, "OFFICE": null, "SHOP": "supermarket", "TOURISM": null, "SPORT": null, "OSM_TYPE": "node", "OSM_ID": 4634800691 }, "geometry": { "type": "Point", "coordinates": [ 32.577846, 15.597656 ] } },
{ "type": "Feature", "properties": { "NAME": "العمارات سنتر", "NAME_EN": null, "MAN_MADE": null, "LEISURE": null, "AMENITY": null, "OFFICE": null, "SHOP": "supermarket", "TOURISM": null, "SPORT": null, "OSM_TYPE": "node", "OSM_ID": 4635108789 }, "geometry": { "type": "Point", "coordinates": [ 32.5775614, 15.5685241 ] } },
{ "type": "Feature", "properties": { "NAME": "مياس هايبر ماركت", "NAME_EN": null, "MAN_MADE": null, "LEISURE": null, "AMENITY": null, "OFFICE": null, "SHOP": "supermarket", "TOURISM": null, "SPORT": null, "OSM_TYPE": "node", "OSM_ID": 4635135589 }, "geometry": { "type": "Point", "coordinates": [ 32.5813719, 15.5466229 ] } },
{ "type": "Feature", "properties": { "NAME": "دولي سنتر للتسوق", "NAME_EN": null, "MAN_MADE": null, "LEISURE": null, "AMENITY": null, "OFFICE": null, "SHOP": "supermarket", "TOURISM": null, "SPORT": null, "OSM_TYPE": "node", "OSM_ID": 4639367195 }, "geometry": { "type": "Point", "coordinates": [ 32.5413031, 15.6257772 ] } },
{ "type": "Feature", "properties": { "NAME": "مخبز و سوبرماركت الفاروق", "NAME_EN": null, "MAN_MADE": null, "LEISURE": null, "AMENITY": null, "OFFICE": null, "SHOP": "supermarket", "TOURISM": null, "SPORT": null, "OSM_TYPE": "node", "OSM_ID": 4639367290 }, "geometry": { "type": "Point", "coordinates": [ 32.5359021, 15.6379925 ] } },
{ "type": "Feature", "properties": { "NAME": "المنشية سنتر للتسوق", "NAME_EN": null, "MAN_MADE": null, "LEISURE": null, "AMENITY": null, "OFFICE": null, "SHOP": "supermarket", "TOURISM": null, "SPORT": null, "OSM_TYPE": "node", "OSM_ID": 4646421993 }, "geometry": { "type": "Point", "coordinates": [ 32.581417, 15.597896 ] } },
{ "type": "Feature", "properties": { "NAME": "بقالة الفتح المبين", "NAME_EN": null, "MAN_MADE": null, "LEISURE": null, "AMENITY": null, "OFFICE": null, "SHOP": "supermarket", "TOURISM": null, "SPORT": null, "OSM_TYPE": "node", "OSM_ID": 4646445790 }, "geometry": { "type": "Point", "coordinates": [ 32.627818, 15.6133993 ] } },
{ "type": "Feature", "properties": { "NAME": "سوق خضار", "NAME_EN": null, "MAN_MADE": null, "LEISURE": null, "AMENITY": null, "OFFICE": null, "SHOP": "supermarket", "TOURISM": null, "SPORT": null, "OSM_TYPE": "node", "OSM_ID": 4671962989 }, "geometry": { "type": "Point", "coordinates": [ 32.5625531, 15.6038972 ] } },
{ "type": "Feature", "properties": { "NAME": "البقالة", "NAME_EN": "السلمة", "MAN_MADE": null, "LEISURE": null, "AMENITY": null, "OFFICE": null, "SHOP": "supermarket", "TOURISM": null, "SPORT": null, "OSM_TYPE": "node", "OSM_ID": 4712948398 }, "geometry": { "type": "Point", "coordinates": [ 32.5818181, 15.4956346 ] } },
{ "type": "Feature", "properties": { "NAME": null, "NAME_EN": null, "MAN_MADE": null, "LEISURE": null, "AMENITY": null, "OFFICE": null, "SHOP": "supermarket", "TOURISM": null, "SPORT": null, "OSM_TYPE": "node", "OSM_ID": 4713433193 }, "geometry": { "type": "Point", "coordinates": [ 32.4936341, 15.6434524 ] } },
{ "type": "Feature", "properties": { "NAME": null, "NAME_EN": null, "MAN_MADE": null, "LEISURE": null, "AMENITY": null, "OFFICE": null, "SHOP": "supermarket", "TOURISM": null, "SPORT": null, "OSM_TYPE": "node", "OSM_ID": 4713460304 }, "geometry": { "type": "Point", "coordinates": [ 32.4936818, 15.6433568 ] } },
{ "type": "Feature", "properties": { "NAME": null, "NAME_EN": null, "MAN_MADE": null, "LEISURE": null, "AMENITY": null, "OFFICE": null, "SHOP": "supermarket", "TOURISM": null, "SPORT": null, "OSM_TYPE": "node", "OSM_ID": 4713460898 }, "geometry": { "type": "Point", "coordinates": [ 32.4936741, 15.6433359 ] } },
{ "type": "Feature", "properties": { "NAME": "سوبرماركت الإحسان", "NAME_EN": "AL Ehsan Supermarket", "MAN_MADE": null, "LEISURE": null, "AMENITY": null, "OFFICE": null, "SHOP": "supermarket", "TOURISM": null, "SPORT": null, "OSM_TYPE": "node", "OSM_ID": 4757660543 }, "geometry": { "type": "Point", "coordinates": [ 32.5425004, 15.6802833 ] } },
{ "type": "Feature", "properties": { "NAME": "الشريف سوبرماركت", "NAME_EN": "Al Shareef Supermarket", "MAN_MADE": null, "LEISURE": null, "AMENITY": null, "OFFICE": null, "SHOP": "supermarket", "TOURISM": null, "SPORT": null, "OSM_TYPE": "node", "OSM_ID": 4757661422 }, "geometry": { "type": "Point", "coordinates": [ 32.5415242, 15.6786046 ] } },
{ "type": "Feature", "properties": { "NAME": "قرنفلة", "NAME_EN": null, "MAN_MADE": null, "LEISURE": null, "AMENITY": null, "OFFICE": null, "SHOP": "supermarket", "TOURISM": null, "SPORT": null, "OSM_TYPE": "node", "OSM_ID": 4945031923 }, "geometry": { "type": "Point", "coordinates": [ 32.4821554, 15.4799859 ] } },
{ "type": "Feature", "properties": { "NAME": "عطارة كارتيلا", "NAME_EN": null, "MAN_MADE": null, "LEISURE": null, "AMENITY": null, "OFFICE": null, "SHOP": "supermarket", "TOURISM": null, "SPORT": null, "OSM_TYPE": "node", "OSM_ID": 4963181444 }, "geometry": { "type": "Point", "coordinates": [ 32.574407, 15.5428229 ] } },
{ "type": "Feature", "properties": { "NAME": "ميسم ماركت", "NAME_EN": null, "MAN_MADE": null, "LEISURE": null, "AMENITY": null, "OFFICE": null, "SHOP": "supermarket", "TOURISM": null, "SPORT": null, "OSM_TYPE": "node", "OSM_ID": 4963181446 }, "geometry": { "type": "Point", "coordinates": [ 32.5747009, 15.5428683 ] } },
{ "type": "Feature", "properties": { "NAME": "Al Riyadh shopping Mall", "NAME_EN": null, "MAN_MADE": null, "LEISURE": null, "AMENITY": null, "OFFICE": null, "SHOP": "supermarket", "TOURISM": null, "SPORT": null, "OSM_TYPE": "node", "OSM_ID": 4997065667 }, "geometry": { "type": "Point", "coordinates": [ 32.5733156, 15.5723411 ] } },
{ "type": "Feature", "properties": { "NAME": "اماسينا سوبرماركت", "NAME_EN": "Amasena Supermarket", "MAN_MADE": null, "LEISURE": null, "AMENITY": null, "OFFICE": null, "SHOP": "supermarket", "TOURISM": null, "SPORT": null, "OSM_TYPE": "node", "OSM_ID": 5047373771 }, "geometry": { "type": "Point", "coordinates": [ 32.4787924, 15.6188045 ] } },
{ "type": "Feature", "properties": { "NAME": "سوبرماركت دريم", "NAME_EN": null, "MAN_MADE": null, "LEISURE": null, "AMENITY": null, "OFFICE": null, "SHOP": "supermarket", "TOURISM": null, "SPORT": null, "OSM_TYPE": "node", "OSM_ID": 5207841923 }, "geometry": { "type": "Point", "coordinates": [ 32.4937504, 15.6442735 ] } },
{ "type": "Feature", "properties": { "NAME": "كارفور", "NAME_EN": null, "MAN_MADE": null, "LEISURE": null, "AMENITY": null, "OFFICE": null, "SHOP": "supermarket", "TOURISM": null, "SPORT": null, "OSM_TYPE": "node", "OSM_ID": 5222681436 }, "geometry": { "type": "Point", "coordinates": [ 32.5645391, 15.5616222 ] } },
{ "type": "Feature", "properties": { "NAME": "Abu Mina  -  ابو مينا", "NAME_EN": null, "MAN_MADE": null, "LEISURE": null, "AMENITY": null, "OFFICE": null, "SHOP": "supermarket", "TOURISM": null, "SPORT": null, "OSM_TYPE": "node", "OSM_ID": 5245775822 }, "geometry": { "type": "Point", "coordinates": [ 32.5348885, 15.5723099 ] } },
{ "type": "Feature", "properties": { "NAME": "بقالة أبو أنس", "NAME_EN": null, "MAN_MADE": null, "LEISURE": null, "AMENITY": null, "OFFICE": null, "SHOP": "supermarket", "TOURISM": null, "SPORT": null, "OSM_TYPE": "node", "OSM_ID": 5275737421 }, "geometry": { "type": "Point", "coordinates": [ 32.5461299, 15.6613893 ] } },
{ "type": "Feature", "properties": { "NAME": "سوق الرواسي", "NAME_EN": null, "MAN_MADE": null, "LEISURE": null, "AMENITY": null, "OFFICE": null, "SHOP": "supermarket", "TOURISM": null, "SPORT": null, "OSM_TYPE": "node", "OSM_ID": 5289167722 }, "geometry": { "type": "Point", "coordinates": [ 32.6335634, 15.6480505 ] } },
{ "type": "Feature", "properties": { "NAME": "Alanfal", "NAME_EN": null, "MAN_MADE": null, "LEISURE": null, "AMENITY": null, "OFFICE": null, "SHOP": "supermarket", "TOURISM": null, "SPORT": null, "OSM_TYPE": "node", "OSM_ID": 5337575121 }, "geometry": { "type": "Point", "coordinates": [ 32.5107845, 15.5245172 ] } },
{ "type": "Feature", "properties": { "NAME": "السوق الشعبي", "NAME_EN": "Souk el Shabi", "MAN_MADE": null, "LEISURE": null, "AMENITY": null, "OFFICE": null, "SHOP": "supermarket", "TOURISM": null, "SPORT": null, "OSM_TYPE": "node", "OSM_ID": 5436682123 }, "geometry": { "type": "Point", "coordinates": [ 32.5370759, 15.5585145 ] } },
{ "type": "Feature", "properties": { "NAME": "Al-Wali Supermarket", "NAME_EN": null, "MAN_MADE": null, "LEISURE": null, "AMENITY": null, "OFFICE": null, "SHOP": "supermarket", "TOURISM": null, "SPORT": null, "OSM_TYPE": "node", "OSM_ID": 5504755059 }, "geometry": { "type": "Point", "coordinates": [ 32.5556816, 15.6291945 ] } },
{ "type": "Feature", "properties": { "NAME": "Al-safia", "NAME_EN": null, "MAN_MADE": null, "LEISURE": null, "AMENITY": null, "OFFICE": null, "SHOP": "supermarket", "TOURISM": null, "SPORT": null, "OSM_TYPE": "node", "OSM_ID": 5515944826 }, "geometry": { "type": "Point", "coordinates": [ 32.5383368, 15.6506268 ] } },
{ "type": "Feature", "properties": { "NAME": "Saudi", "NAME_EN": null, "MAN_MADE": null, "LEISURE": null, "AMENITY": null, "OFFICE": null, "SHOP": "supermarket", "TOURISM": null, "SPORT": null, "OSM_TYPE": "node", "OSM_ID": 5571021421 }, "geometry": { "type": "Point", "coordinates": [ 32.5677486, 15.5990827 ] } },
{ "type": "Feature", "properties": { "NAME": "مروة سنتر", "NAME_EN": "Marwa Center", "MAN_MADE": null, "LEISURE": null, "AMENITY": null, "OFFICE": null, "SHOP": "supermarket", "TOURISM": null, "SPORT": null, "OSM_TYPE": "node", "OSM_ID": 5571150123 }, "geometry": { "type": "Point", "coordinates": [ 32.573448, 15.5938934 ] } },
{ "type": "Feature", "properties": { "NAME": "Alanfal Supermarket", "NAME_EN": null, "MAN_MADE": null, "LEISURE": null, "AMENITY": null, "OFFICE": null, "SHOP": "supermarket", "TOURISM": null, "SPORT": null, "OSM_TYPE": "node", "OSM_ID": 5580160621 }, "geometry": { "type": "Point", "coordinates": [ 32.5723728, 15.5811627 ] } },
{ "type": "Feature", "properties": { "NAME": null, "NAME_EN": null, "MAN_MADE": null, "LEISURE": null, "AMENITY": null, "OFFICE": null, "SHOP": "supermarket", "TOURISM": null, "SPORT": null, "OSM_TYPE": "node", "OSM_ID": 5726254674 }, "geometry": { "type": "Point", "coordinates": [ 32.5351135, 15.5708939 ] } },
{ "type": "Feature", "properties": { "NAME": null, "NAME_EN": null, "MAN_MADE": null, "LEISURE": null, "AMENITY": null, "OFFICE": null, "SHOP": "supermarket", "TOURISM": null, "SPORT": null, "OSM_TYPE": "node", "OSM_ID": 5726266173 }, "geometry": { "type": "Point", "coordinates": [ 32.535027, 15.5712731 ] } },
{ "type": "Feature", "properties": { "NAME": "عمارة البرير", "NAME_EN": "mobile", "MAN_MADE": null, "LEISURE": null, "AMENITY": null, "OFFICE": null, "SHOP": "supermarket", "TOURISM": null, "SPORT": null, "OSM_TYPE": "node", "OSM_ID": 5760478121 }, "geometry": { "type": "Point", "coordinates": [ 32.4815355, 15.6465743 ] } },
{ "type": "Feature", "properties": { "NAME": "ابو ذقن", "NAME_EN": null, "MAN_MADE": null, "LEISURE": null, "AMENITY": null, "OFFICE": null, "SHOP": "supermarket", "TOURISM": null, "SPORT": null, "OSM_TYPE": "node", "OSM_ID": 5825631355 }, "geometry": { "type": "Point", "coordinates": [ 32.6240237, 15.6340143 ] } },
{ "type": "Feature", "properties": { "NAME": "المحسي للمواد الغذائية", "NAME_EN": null, "MAN_MADE": null, "LEISURE": null, "AMENITY": null, "OFFICE": null, "SHOP": "supermarket", "TOURISM": null, "SPORT": null, "OSM_TYPE": "node", "OSM_ID": 5825637053 }, "geometry": { "type": "Point", "coordinates": [ 32.6244429, 15.6346595 ] } },
{ "type": "Feature", "properties": { "NAME": "بقالة عروس الرمل", "NAME_EN": null, "MAN_MADE": null, "LEISURE": null, "AMENITY": null, "OFFICE": null, "SHOP": "supermarket", "TOURISM": null, "SPORT": null, "OSM_TYPE": "node", "OSM_ID": 5831552787 }, "geometry": { "type": "Point", "coordinates": [ 32.6242147, 15.6374171 ] } },
{ "type": "Feature", "properties": { "NAME": "سوبرماركت السعودي", "NAME_EN": "Saudi Market", "MAN_MADE": null, "LEISURE": null, "AMENITY": null, "OFFICE": null, "SHOP": "supermarket", "TOURISM": null, "SPORT": null, "OSM_TYPE": "node", "OSM_ID": 5875325850 }, "geometry": { "type": "Point", "coordinates": [ 32.5703216, 15.5808082 ] } },
{ "type": "Feature", "properties": { "NAME": "الرحاب سنتر", "NAME_EN": null, "MAN_MADE": null, "LEISURE": null, "AMENITY": null, "OFFICE": null, "SHOP": "supermarket", "TOURISM": null, "SPORT": null, "OSM_TYPE": "node", "OSM_ID": 5970497786 }, "geometry": { "type": "Point", "coordinates": [ 32.5702596, 15.6358282 ] } },
{ "type": "Feature", "properties": { "NAME": "Al kawthar - مركز الكوثر", "NAME_EN": null, "MAN_MADE": null, "LEISURE": null, "AMENITY": null, "OFFICE": null, "SHOP": "supermarket", "TOURISM": null, "SPORT": null, "OSM_TYPE": "node", "OSM_ID": 5971999786 }, "geometry": { "type": "Point", "coordinates": [ 32.5664811, 15.6355677 ] } },
{ "type": "Feature", "properties": { "NAME": "Kafouri center", "NAME_EN": null, "MAN_MADE": null, "LEISURE": null, "AMENITY": null, "OFFICE": null, "SHOP": "supermarket", "TOURISM": null, "SPORT": null, "OSM_TYPE": "node", "OSM_ID": 5972139185 }, "geometry": { "type": "Point", "coordinates": [ 32.5746419, 15.6361208 ] } },
{ "type": "Feature", "properties": { "NAME": "دهانات الجزيرة", "NAME_EN": null, "MAN_MADE": null, "LEISURE": null, "AMENITY": null, "OFFICE": null, "SHOP": "supermarket", "TOURISM": null, "SPORT": null, "OSM_TYPE": "node", "OSM_ID": 5985464471 }, "geometry": { "type": "Point", "coordinates": [ 32.5827128, 15.5371387 ] } },
{ "type": "Feature", "properties": { "NAME": "مركز تسوق", "NAME_EN": null, "MAN_MADE": null, "LEISURE": null, "AMENITY": null, "OFFICE": null, "SHOP": "supermarket", "TOURISM": null, "SPORT": null, "OSM_TYPE": "node", "OSM_ID": 5993019115 }, "geometry": { "type": "Point", "coordinates": [ 32.5631657, 15.533375 ] } },
{ "type": "Feature", "properties": { "NAME": "مركز المدينة المنورة للمواد الغذائية", "NAME_EN": "Madinah Foodstuff Center", "MAN_MADE": null, "LEISURE": null, "AMENITY": null, "OFFICE": null, "SHOP": "supermarket", "TOURISM": null, "SPORT": null, "OSM_TYPE": "node", "OSM_ID": 5993070799 }, "geometry": { "type": "Point", "coordinates": [ 32.5545606, 15.5319775 ] } },
{ "type": "Feature", "properties": { "NAME": "فتحي سنتر", "NAME_EN": null, "MAN_MADE": null, "LEISURE": null, "AMENITY": null, "OFFICE": null, "SHOP": "supermarket", "TOURISM": null, "SPORT": null, "OSM_TYPE": "node", "OSM_ID": 5993399422 }, "geometry": { "type": "Point", "coordinates": [ 32.5498712, 15.5314635 ] } },
{ "type": "Feature", "properties": { "NAME": "مخبز عيني علي سيقا", "NAME_EN": null, "MAN_MADE": null, "LEISURE": null, "AMENITY": null, "OFFICE": null, "SHOP": "supermarket", "TOURISM": null, "SPORT": null, "OSM_TYPE": "node", "OSM_ID": 5993408097 }, "geometry": { "type": "Point", "coordinates": [ 32.5504873, 15.531366 ] } },
{ "type": "Feature", "properties": { "NAME": "بقالة سلام", "NAME_EN": null, "MAN_MADE": null, "LEISURE": null, "AMENITY": null, "OFFICE": null, "SHOP": "supermarket", "TOURISM": null, "SPORT": null, "OSM_TYPE": "node", "OSM_ID": 5993424385 }, "geometry": { "type": "Point", "coordinates": [ 32.5494198, 15.5311897 ] } },
{ "type": "Feature", "properties": { "NAME": "بقالة ود القطينة", "NAME_EN": null, "MAN_MADE": null, "LEISURE": null, "AMENITY": null, "OFFICE": null, "SHOP": "supermarket", "TOURISM": null, "SPORT": null, "OSM_TYPE": "node", "OSM_ID": 5993424529 }, "geometry": { "type": "Point", "coordinates": [ 32.5497688, 15.5320404 ] } },
{ "type": "Feature", "properties": { "NAME": "بقالة كوكب", "NAME_EN": null, "MAN_MADE": null, "LEISURE": null, "AMENITY": null, "OFFICE": null, "SHOP": "supermarket", "TOURISM": null, "SPORT": null, "OSM_TYPE": "node", "OSM_ID": 5993441862 }, "geometry": { "type": "Point", "coordinates": [ 32.5492128, 15.5355556 ] } },
{ "type": "Feature", "properties": { "NAME": "الناظم سوبر ماركت", "NAME_EN": null, "MAN_MADE": null, "LEISURE": null, "AMENITY": null, "OFFICE": null, "SHOP": "supermarket", "TOURISM": null, "SPORT": null, "OSM_TYPE": "node", "OSM_ID": 5993444449 }, "geometry": { "type": "Point", "coordinates": [ 32.5487818, 15.5379604 ] } },
{ "type": "Feature", "properties": { "NAME": "Shamil House", "NAME_EN": null, "MAN_MADE": null, "LEISURE": null, "AMENITY": null, "OFFICE": null, "SHOP": "supermarket", "TOURISM": null, "SPORT": null, "OSM_TYPE": "node", "OSM_ID": 5998952315 }, "geometry": { "type": "Point", "coordinates": [ 32.5682696, 15.5805355 ] } },
{ "type": "Feature", "properties": { "NAME": "Eljali Grocery", "NAME_EN": null, "MAN_MADE": null, "LEISURE": null, "AMENITY": null, "OFFICE": null, "SHOP": "supermarket", "TOURISM": null, "SPORT": null, "OSM_TYPE": "node", "OSM_ID": 6000341284 }, "geometry": { "type": "Point", "coordinates": [ 32.565681, 15.5804599 ] } },
{ "type": "Feature", "properties": { "NAME": "SUBUL COMPANY", "NAME_EN": null, "MAN_MADE": null, "LEISURE": null, "AMENITY": null, "OFFICE": null, "SHOP": "supermarket", "TOURISM": null, "SPORT": null, "OSM_TYPE": "node", "OSM_ID": 6000806925 }, "geometry": { "type": "Point", "coordinates": [ 32.5612233, 15.5791411 ] } },
{ "type": "Feature", "properties": { "NAME": "خيرات بلاد الشام", "NAME_EN": null, "MAN_MADE": null, "LEISURE": null, "AMENITY": null, "OFFICE": null, "SHOP": "supermarket", "TOURISM": null, "SPORT": null, "OSM_TYPE": "node", "OSM_ID": 6001242213 }, "geometry": { "type": "Point", "coordinates": [ 32.5705347, 15.5720268 ] } },
{ "type": "Feature", "properties": { "NAME": null, "NAME_EN": null, "MAN_MADE": null, "LEISURE": null, "AMENITY": null, "OFFICE": null, "SHOP": "supermarket", "TOURISM": null, "SPORT": null, "OSM_TYPE": "node", "OSM_ID": 6002682492 }, "geometry": { "type": "Point", "coordinates": [ 33.4108868, 15.7998168 ] } },
{ "type": "Feature", "properties": { "NAME": "Seven Heaven", "NAME_EN": null, "MAN_MADE": null, "LEISURE": null, "AMENITY": null, "OFFICE": null, "SHOP": "supermarket", "TOURISM": null, "SPORT": null, "OSM_TYPE": "node", "OSM_ID": 6005172550 }, "geometry": { "type": "Point", "coordinates": [ 32.5638982, 15.5708495 ] } },
{ "type": "Feature", "properties": { "NAME": "دكان ربيع", "NAME_EN": null, "MAN_MADE": null, "LEISURE": null, "AMENITY": null, "OFFICE": null, "SHOP": "supermarket", "TOURISM": null, "SPORT": null, "OSM_TYPE": "node", "OSM_ID": 6005195679 }, "geometry": { "type": "Point", "coordinates": [ 32.5735762, 15.5771452 ] } },
{ "type": "Feature", "properties": { "NAME": "الخليل للمواد الغذائية", "NAME_EN": null, "MAN_MADE": null, "LEISURE": null, "AMENITY": null, "OFFICE": null, "SHOP": "supermarket", "TOURISM": null, "SPORT": null, "OSM_TYPE": "node", "OSM_ID": 6007493446 }, "geometry": { "type": "Point", "coordinates": [ 32.5715739, 15.5982732 ] } },
{ "type": "Feature", "properties": { "NAME": "سوپر مارکت محطة4", "NAME_EN": null, "MAN_MADE": null, "LEISURE": null, "AMENITY": null, "OFFICE": null, "SHOP": "supermarket", "TOURISM": null, "SPORT": null, "OSM_TYPE": "node", "OSM_ID": 6007640625 }, "geometry": { "type": "Point", "coordinates": [ 32.5619223, 15.6024127 ] } },
{ "type": "Feature", "properties": { "NAME": "السناري للمواد الغذائية", "NAME_EN": null, "MAN_MADE": null, "LEISURE": null, "AMENITY": null, "OFFICE": null, "SHOP": "supermarket", "TOURISM": null, "SPORT": null, "OSM_TYPE": "node", "OSM_ID": 6007645246 }, "geometry": { "type": "Point", "coordinates": [ 32.5586023, 15.6001757 ] } },
{ "type": "Feature", "properties": { "NAME": "بقالة أولاد سعيد", "NAME_EN": null, "MAN_MADE": null, "LEISURE": null, "AMENITY": null, "OFFICE": null, "SHOP": "supermarket", "TOURISM": null, "SPORT": null, "OSM_TYPE": "node", "OSM_ID": 6007683099 }, "geometry": { "type": "Point", "coordinates": [ 32.5591285, 15.5981293 ] } },
{ "type": "Feature", "properties": { "NAME": "تموينات السوباط", "NAME_EN": null, "MAN_MADE": null, "LEISURE": null, "AMENITY": null, "OFFICE": null, "SHOP": "supermarket", "TOURISM": null, "SPORT": null, "OSM_TYPE": "node", "OSM_ID": 6007687231 }, "geometry": { "type": "Point", "coordinates": [ 32.5594177, 15.595622 ] } },
{ "type": "Feature", "properties": { "NAME": "مركز الصفا", "NAME_EN": null, "MAN_MADE": null, "LEISURE": null, "AMENITY": null, "OFFICE": null, "SHOP": "supermarket", "TOURISM": null, "SPORT": null, "OSM_TYPE": "node", "OSM_ID": 6007690783 }, "geometry": { "type": "Point", "coordinates": [ 32.5595251, 15.5949622 ] } },
{ "type": "Feature", "properties": { "NAME": "Nigoom Al khartoum", "NAME_EN": null, "MAN_MADE": null, "LEISURE": null, "AMENITY": null, "OFFICE": null, "SHOP": "supermarket", "TOURISM": null, "SPORT": null, "OSM_TYPE": "node", "OSM_ID": 6008162665 }, "geometry": { "type": "Point", "coordinates": [ 32.5247056, 15.5763051 ] } },
{ "type": "Feature", "properties": { "NAME": "مركز الفاروق للتسوق", "NAME_EN": null, "MAN_MADE": null, "LEISURE": null, "AMENITY": null, "OFFICE": null, "SHOP": "supermarket", "TOURISM": null, "SPORT": null, "OSM_TYPE": "node", "OSM_ID": 6010612308 }, "geometry": { "type": "Point", "coordinates": [ 32.538898, 15.6090274 ] } },
{ "type": "Feature", "properties": { "NAME": "سوپرمارکت تسابيح", "NAME_EN": null, "MAN_MADE": null, "LEISURE": null, "AMENITY": null, "OFFICE": null, "SHOP": "supermarket", "TOURISM": null, "SPORT": null, "OSM_TYPE": "node", "OSM_ID": 6013359512 }, "geometry": { "type": "Point", "coordinates": [ 32.5740633, 15.5534659 ] } },
{ "type": "Feature", "properties": { "NAME": "جوليا سيوبرماركت", "NAME_EN": null, "MAN_MADE": null, "LEISURE": null, "AMENITY": null, "OFFICE": null, "SHOP": "supermarket", "TOURISM": null, "SPORT": null, "OSM_TYPE": "node", "OSM_ID": 6013424710 }, "geometry": { "type": "Point", "coordinates": [ 32.5709564, 15.5615031 ] } },
{ "type": "Feature", "properties": { "NAME": "منية سوبر ماركت", "NAME_EN": "munia supermarket", "MAN_MADE": null, "LEISURE": null, "AMENITY": null, "OFFICE": null, "SHOP": "supermarket", "TOURISM": null, "SPORT": null, "OSM_TYPE": "node", "OSM_ID": 6051352862 }, "geometry": { "type": "Point", "coordinates": [ 32.5001182, 15.5489505 ] } },
{ "type": "Feature", "properties": { "NAME": "عابدين سنتر", "NAME_EN": null, "MAN_MADE": null, "LEISURE": null, "AMENITY": null, "OFFICE": null, "SHOP": "supermarket", "TOURISM": null, "SPORT": null, "OSM_TYPE": "node", "OSM_ID": 6051352865 }, "geometry": { "type": "Point", "coordinates": [ 32.4990471, 15.5464266 ] } },
{ "type": "Feature", "properties": { "NAME": "اليسيرة سوبرماركت", "NAME_EN": null, "MAN_MADE": null, "LEISURE": null, "AMENITY": null, "OFFICE": null, "SHOP": "supermarket", "TOURISM": null, "SPORT": null, "OSM_TYPE": "node", "OSM_ID": 6051404864 }, "geometry": { "type": "Point", "coordinates": [ 32.4958628, 15.5391019 ] } },
{ "type": "Feature", "properties": { "NAME": "خالد سنتر", "NAME_EN": null, "MAN_MADE": null, "LEISURE": null, "AMENITY": null, "OFFICE": null, "SHOP": "supermarket", "TOURISM": null, "SPORT": null, "OSM_TYPE": "node", "OSM_ID": 6054946505 }, "geometry": { "type": "Point", "coordinates": [ 32.5009898, 15.5513505 ] } },
{ "type": "Feature", "properties": { "NAME": "سوبر ماركت الوفرة", "NAME_EN": null, "MAN_MADE": null, "LEISURE": null, "AMENITY": null, "OFFICE": null, "SHOP": "supermarket", "TOURISM": null, "SPORT": null, "OSM_TYPE": "node", "OSM_ID": 6054946506 }, "geometry": { "type": "Point", "coordinates": [ 32.4982372, 15.5449964 ] } },
{ "type": "Feature", "properties": { "NAME": "مركز الفيصل التجاري", "NAME_EN": null, "MAN_MADE": null, "LEISURE": null, "AMENITY": null, "OFFICE": null, "SHOP": "supermarket", "TOURISM": null, "SPORT": null, "OSM_TYPE": "node", "OSM_ID": 6054974776 }, "geometry": { "type": "Point", "coordinates": [ 32.4945627, 15.5351806 ] } },
{ "type": "Feature", "properties": { "NAME": "سوبر ماركت الحياة", "NAME_EN": null, "MAN_MADE": null, "LEISURE": null, "AMENITY": null, "OFFICE": null, "SHOP": "supermarket", "TOURISM": null, "SPORT": null, "OSM_TYPE": "node", "OSM_ID": 6055046592 }, "geometry": { "type": "Point", "coordinates": [ 32.4937295, 15.534357 ] } },
{ "type": "Feature", "properties": { "NAME": "دكان الامام", "NAME_EN": null, "MAN_MADE": null, "LEISURE": null, "AMENITY": null, "OFFICE": null, "SHOP": "supermarket", "TOURISM": null, "SPORT": null, "OSM_TYPE": "node", "OSM_ID": 6055046600 }, "geometry": { "type": "Point", "coordinates": [ 32.4974291, 15.5313006 ] } },
{ "type": "Feature", "properties": { "NAME": "بقالة الجميرا", "NAME_EN": null, "MAN_MADE": null, "LEISURE": null, "AMENITY": null, "OFFICE": null, "SHOP": "supermarket", "TOURISM": null, "SPORT": null, "OSM_TYPE": "node", "OSM_ID": 6055046601 }, "geometry": { "type": "Point", "coordinates": [ 32.4964648, 15.5297093 ] } },
{ "type": "Feature", "properties": { "NAME": "بولو فرينزي", "NAME_EN": null, "MAN_MADE": null, "LEISURE": null, "AMENITY": null, "OFFICE": null, "SHOP": "supermarket", "TOURISM": null, "SPORT": null, "OSM_TYPE": "node", "OSM_ID": 6055046605 }, "geometry": { "type": "Point", "coordinates": [ 32.4976953, 15.5210955 ] } },
{ "type": "Feature", "properties": { "NAME": "برنا وفاهم للتسوق", "NAME_EN": null, "MAN_MADE": null, "LEISURE": null, "AMENITY": null, "OFFICE": null, "SHOP": "supermarket", "TOURISM": null, "SPORT": null, "OSM_TYPE": "node", "OSM_ID": 6055074486 }, "geometry": { "type": "Point", "coordinates": [ 32.5634709, 15.4997521 ] } },
{ "type": "Feature", "properties": { "NAME": "البلوشي للمواد الغدائية", "NAME_EN": null, "MAN_MADE": null, "LEISURE": null, "AMENITY": null, "OFFICE": null, "SHOP": "supermarket", "TOURISM": null, "SPORT": null, "OSM_TYPE": "node", "OSM_ID": 6055074901 }, "geometry": { "type": "Point", "coordinates": [ 32.565274, 15.502864 ] } },
{ "type": "Feature", "properties": { "NAME": "سوبر ماركت ابو حمد", "NAME_EN": "discount supermarket", "MAN_MADE": null, "LEISURE": null, "AMENITY": null, "OFFICE": null, "SHOP": "supermarket", "TOURISM": null, "SPORT": null, "OSM_TYPE": "node", "OSM_ID": 6055109331 }, "geometry": { "type": "Point", "coordinates": [ 32.4931897, 15.5226263 ] } },
{ "type": "Feature", "properties": { "NAME": "ود ملاح للتسوق", "NAME_EN": null, "MAN_MADE": null, "LEISURE": null, "AMENITY": null, "OFFICE": null, "SHOP": "supermarket", "TOURISM": null, "SPORT": null, "OSM_TYPE": "node", "OSM_ID": 6055111887 }, "geometry": { "type": "Point", "coordinates": [ 32.559471, 15.5214728 ] } },
{ "type": "Feature", "properties": { "NAME": "بقال الريان", "NAME_EN": "ALryan supermarket", "MAN_MADE": null, "LEISURE": null, "AMENITY": null, "OFFICE": null, "SHOP": "supermarket", "TOURISM": null, "SPORT": null, "OSM_TYPE": "node", "OSM_ID": 6055143644 }, "geometry": { "type": "Point", "coordinates": [ 32.4917868, 15.5214664 ] } },
{ "type": "Feature", "properties": { "NAME": "سوبرماركت ابو حسناء", "NAME_EN": "supermarket abu hasna", "MAN_MADE": null, "LEISURE": null, "AMENITY": null, "OFFICE": null, "SHOP": "supermarket", "TOURISM": null, "SPORT": null, "OSM_TYPE": "node", "OSM_ID": 6055149940 }, "geometry": { "type": "Point", "coordinates": [ 32.4912033, 15.5221981 ] } },
{ "type": "Feature", "properties": { "NAME": "سوبر ماركت عبد السلام", "NAME_EN": "shopping mall abdelsaleem supermarket", "MAN_MADE": null, "LEISURE": null, "AMENITY": null, "OFFICE": null, "SHOP": "supermarket", "TOURISM": null, "SPORT": null, "OSM_TYPE": "node", "OSM_ID": 6055245972 }, "geometry": { "type": "Point", "coordinates": [ 32.4890014, 15.5069835 ] } },
{ "type": "Feature", "properties": { "NAME": "سنتر طيبة", "NAME_EN": "tyba center", "MAN_MADE": null, "LEISURE": null, "AMENITY": null, "OFFICE": null, "SHOP": "supermarket", "TOURISM": null, "SPORT": null, "OSM_TYPE": "node", "OSM_ID": 6055301255 }, "geometry": { "type": "Point", "coordinates": [ 32.4845149, 15.5070408 ] } },
{ "type": "Feature", "properties": { "NAME": "سوبر ماركت الطيبات", "NAME_EN": null, "MAN_MADE": null, "LEISURE": null, "AMENITY": null, "OFFICE": null, "SHOP": "supermarket", "TOURISM": null, "SPORT": null, "OSM_TYPE": "node", "OSM_ID": 6057600376 }, "geometry": { "type": "Point", "coordinates": [ 32.4879912, 15.5214852 ] } },
{ "type": "Feature", "properties": { "NAME": "الشروق 13 للمواد الغذائية", "NAME_EN": null, "MAN_MADE": null, "LEISURE": null, "AMENITY": null, "OFFICE": null, "SHOP": "supermarket", "TOURISM": null, "SPORT": null, "OSM_TYPE": "node", "OSM_ID": 6057663989 }, "geometry": { "type": "Point", "coordinates": [ 32.5780406, 15.7127742 ] } },
{ "type": "Feature", "properties": { "NAME": "الريان سوبر ماركت", "NAME_EN": null, "MAN_MADE": null, "LEISURE": null, "AMENITY": null, "OFFICE": null, "SHOP": "supermarket", "TOURISM": null, "SPORT": null, "OSM_TYPE": "node", "OSM_ID": 6057686148 }, "geometry": { "type": "Point", "coordinates": [ 32.5778076, 15.7129394 ] } },
{ "type": "Feature", "properties": { "NAME": "مركز الشمس المشرقة", "NAME_EN": null, "MAN_MADE": null, "LEISURE": null, "AMENITY": null, "OFFICE": null, "SHOP": "supermarket", "TOURISM": null, "SPORT": null, "OSM_TYPE": "node", "OSM_ID": 6057741506 }, "geometry": { "type": "Point", "coordinates": [ 32.5762486, 15.5194657 ] } },
{ "type": "Feature", "properties": { "NAME": "Collection Supermarket", "NAME_EN": null, "MAN_MADE": null, "LEISURE": null, "AMENITY": null, "OFFICE": null, "SHOP": "supermarket", "TOURISM": null, "SPORT": null, "OSM_TYPE": "node", "OSM_ID": 6061209585 }, "geometry": { "type": "Point", "coordinates": [ 32.5630124, 15.5030209 ] } },
{ "type": "Feature", "properties": { "NAME": "العوالي 2 سوبر ماركت", "NAME_EN": null, "MAN_MADE": null, "LEISURE": null, "AMENITY": null, "OFFICE": null, "SHOP": "supermarket", "TOURISM": null, "SPORT": null, "OSM_TYPE": "node", "OSM_ID": 6061620385 }, "geometry": { "type": "Point", "coordinates": [ 32.5609523, 15.5134978 ] } },
{ "type": "Feature", "properties": { "NAME": "أسواق الأبرار", "NAME_EN": null, "MAN_MADE": null, "LEISURE": null, "AMENITY": null, "OFFICE": null, "SHOP": "supermarket", "TOURISM": null, "SPORT": null, "OSM_TYPE": "node", "OSM_ID": 6061620386 }, "geometry": { "type": "Point", "coordinates": [ 32.560867, 15.514428 ] } },
{ "type": "Feature", "properties": { "NAME": "سوپر مارکت بشاير", "NAME_EN": null, "MAN_MADE": null, "LEISURE": null, "AMENITY": null, "OFFICE": null, "SHOP": "supermarket", "TOURISM": null, "SPORT": null, "OSM_TYPE": "node", "OSM_ID": 6063601500 }, "geometry": { "type": "Point", "coordinates": [ 32.487691, 15.6351653 ] } },
{ "type": "Feature", "properties": { "NAME": "سوپرمارکت بحر للتسوق", "NAME_EN": null, "MAN_MADE": null, "LEISURE": null, "AMENITY": null, "OFFICE": null, "SHOP": "supermarket", "TOURISM": null, "SPORT": null, "OSM_TYPE": "node", "OSM_ID": 6068732644 }, "geometry": { "type": "Point", "coordinates": [ 32.4651062, 15.6451066 ] } },
{ "type": "Feature", "properties": { "NAME": "شامي ماركت", "NAME_EN": "Shami Market", "MAN_MADE": null, "LEISURE": null, "AMENITY": null, "OFFICE": null, "SHOP": "supermarket", "TOURISM": null, "SPORT": null, "OSM_TYPE": "node", "OSM_ID": 6123596230 }, "geometry": { "type": "Point", "coordinates": [ 32.5609757, 15.6264331 ] } },
{ "type": "Feature", "properties": { "NAME": null, "NAME_EN": null, "MAN_MADE": null, "LEISURE": null, "AMENITY": null, "OFFICE": null, "SHOP": "supermarket", "TOURISM": null, "SPORT": null, "OSM_TYPE": "node", "OSM_ID": 6123596231 }, "geometry": { "type": "Point", "coordinates": [ 32.5687327, 15.6279106 ] } },
{ "type": "Feature", "properties": { "NAME": "المنصورة للتسوق", "NAME_EN": null, "MAN_MADE": null, "LEISURE": null, "AMENITY": null, "OFFICE": null, "SHOP": "supermarket", "TOURISM": null, "SPORT": null, "OSM_TYPE": "node", "OSM_ID": 6126564887 }, "geometry": { "type": "Point", "coordinates": [ 32.5606263, 15.5155759 ] } },
{ "type": "Feature", "properties": { "NAME": "سوبر ماركت القنطرة", "NAME_EN": null, "MAN_MADE": null, "LEISURE": null, "AMENITY": null, "OFFICE": null, "SHOP": "supermarket", "TOURISM": null, "SPORT": null, "OSM_TYPE": "node", "OSM_ID": 6280356885 }, "geometry": { "type": "Point", "coordinates": [ 32.5748693, 15.6321972 ] } },
{ "type": "Feature", "properties": { "NAME": "Isawie store", "NAME_EN": null, "MAN_MADE": null, "LEISURE": null, "AMENITY": null, "OFFICE": null, "SHOP": "supermarket", "TOURISM": null, "SPORT": null, "OSM_TYPE": "node", "OSM_ID": 6712453285 }, "geometry": { "type": "Point", "coordinates": [ 32.5781792, 15.7323867 ] } },
{ "type": "Feature", "properties": { "NAME": "بقالة ابوالطيب", "NAME_EN": null, "MAN_MADE": null, "LEISURE": null, "AMENITY": null, "OFFICE": null, "SHOP": "supermarket", "TOURISM": null, "SPORT": null, "OSM_TYPE": "node", "OSM_ID": 6794733093 }, "geometry": { "type": "Point", "coordinates": [ 32.4726436, 15.7197006 ] } },
{ "type": "Feature", "properties": { "NAME": "سوبرماركت سجى", "NAME_EN": null, "MAN_MADE": null, "LEISURE": null, "AMENITY": null, "OFFICE": null, "SHOP": "supermarket", "TOURISM": null, "SPORT": null, "OSM_TYPE": "node", "OSM_ID": 6795201842 }, "geometry": { "type": "Point", "coordinates": [ 32.4696818, 15.6304196 ] } },
{ "type": "Feature", "properties": { "NAME": "سوبرماركت هبه للتسوق", "NAME_EN": null, "MAN_MADE": null, "LEISURE": null, "AMENITY": null, "OFFICE": null, "SHOP": "supermarket", "TOURISM": null, "SPORT": null, "OSM_TYPE": "node", "OSM_ID": 6795201874 }, "geometry": { "type": "Point", "coordinates": [ 32.4688625, 15.6314229 ] } },
{ "type": "Feature", "properties": { "NAME": "بقالة حي الامراء", "NAME_EN": null, "MAN_MADE": null, "LEISURE": null, "AMENITY": null, "OFFICE": null, "SHOP": "supermarket", "TOURISM": null, "SPORT": null, "OSM_TYPE": "node", "OSM_ID": 6795825704 }, "geometry": { "type": "Point", "coordinates": [ 32.6150513, 15.5788937 ] } },
{ "type": "Feature", "properties": { "NAME": "بقالة الضيعة", "NAME_EN": null, "MAN_MADE": null, "LEISURE": null, "AMENITY": null, "OFFICE": null, "SHOP": "supermarket", "TOURISM": null, "SPORT": null, "OSM_TYPE": "node", "OSM_ID": 6795889386 }, "geometry": { "type": "Point", "coordinates": [ 32.5622259, 15.6282468 ] } },
{ "type": "Feature", "properties": { "NAME": "الخيرات ماركت", "NAME_EN": null, "MAN_MADE": null, "LEISURE": null, "AMENITY": null, "OFFICE": null, "SHOP": "supermarket", "TOURISM": null, "SPORT": null, "OSM_TYPE": "node", "OSM_ID": 6795889388 }, "geometry": { "type": "Point", "coordinates": [ 32.5602585, 15.6269411 ] } },
{ "type": "Feature", "properties": { "NAME": "سوبر ماركت القنجاري", "NAME_EN": null, "MAN_MADE": null, "LEISURE": null, "AMENITY": null, "OFFICE": null, "SHOP": "supermarket", "TOURISM": null, "SPORT": null, "OSM_TYPE": "node", "OSM_ID": 6796052463 }, "geometry": { "type": "Point", "coordinates": [ 32.6098862, 15.5818396 ] } },
{ "type": "Feature", "properties": { "NAME": "مترو سوبر ماركت", "NAME_EN": null, "MAN_MADE": null, "LEISURE": null, "AMENITY": null, "OFFICE": null, "SHOP": "supermarket", "TOURISM": null, "SPORT": null, "OSM_TYPE": "node", "OSM_ID": 6801958421 }, "geometry": { "type": "Point", "coordinates": [ 32.5743249, 15.6359497 ] } },
{ "type": "Feature", "properties": { "NAME": "مركز الشارقة للبيع المخفض", "NAME_EN": null, "MAN_MADE": null, "LEISURE": null, "AMENITY": null, "OFFICE": null, "SHOP": "supermarket", "TOURISM": null, "SPORT": null, "OSM_TYPE": "node", "OSM_ID": 6802105660 }, "geometry": { "type": "Point", "coordinates": [ 32.5286974, 15.5177498 ] } },
{ "type": "Feature", "properties": { "NAME": "بقالة الشكري الجرافة", "NAME_EN": null, "MAN_MADE": null, "LEISURE": null, "AMENITY": null, "OFFICE": null, "SHOP": "supermarket", "TOURISM": null, "SPORT": null, "OSM_TYPE": "node", "OSM_ID": 6807910758 }, "geometry": { "type": "Point", "coordinates": [ 32.5247705, 15.7538226 ] } },
{ "type": "Feature", "properties": { "NAME": "سوبر ماركت الرحمة", "NAME_EN": null, "MAN_MADE": null, "LEISURE": null, "AMENITY": null, "OFFICE": null, "SHOP": "supermarket", "TOURISM": null, "SPORT": null, "OSM_TYPE": "node", "OSM_ID": 6824534652 }, "geometry": { "type": "Point", "coordinates": [ 32.6198397, 15.5977381 ] } },
{ "type": "Feature", "properties": { "NAME": "سوبرماركت يشتهون", "NAME_EN": null, "MAN_MADE": null, "LEISURE": null, "AMENITY": null, "OFFICE": null, "SHOP": "supermarket", "TOURISM": null, "SPORT": null, "OSM_TYPE": "node", "OSM_ID": 6824554315 }, "geometry": { "type": "Point", "coordinates": [ 32.6241674, 15.6327832 ] } },
{ "type": "Feature", "properties": { "NAME": "مركز توزيع تيقا فرع شرق النيل", "NAME_EN": null, "MAN_MADE": null, "LEISURE": null, "AMENITY": null, "OFFICE": null, "SHOP": "supermarket", "TOURISM": null, "SPORT": null, "OSM_TYPE": "node", "OSM_ID": 6832016610 }, "geometry": { "type": "Point", "coordinates": [ 32.610837, 15.5976662 ] } },
{ "type": "Feature", "properties": { "NAME": "أفريقيا للتسوق", "NAME_EN": null, "MAN_MADE": null, "LEISURE": null, "AMENITY": null, "OFFICE": null, "SHOP": "supermarket", "TOURISM": null, "SPORT": null, "OSM_TYPE": "node", "OSM_ID": 6832066737 }, "geometry": { "type": "Point", "coordinates": [ 32.6386611, 15.6072435 ] } },
{ "type": "Feature", "properties": { "NAME": "نعمة الله للتسوق", "NAME_EN": null, "MAN_MADE": null, "LEISURE": null, "AMENITY": null, "OFFICE": null, "SHOP": "supermarket", "TOURISM": null, "SPORT": null, "OSM_TYPE": "node", "OSM_ID": 6832066741 }, "geometry": { "type": "Point", "coordinates": [ 32.6337838, 15.6083444 ] } },
{ "type": "Feature", "properties": { "NAME": "الابراهيمي للمواد الغذائية", "NAME_EN": null, "MAN_MADE": null, "LEISURE": null, "AMENITY": null, "OFFICE": null, "SHOP": "supermarket", "TOURISM": null, "SPORT": null, "OSM_TYPE": "node", "OSM_ID": 6832110557 }, "geometry": { "type": "Point", "coordinates": [ 32.6314126, 15.6326704 ] } },
{ "type": "Feature", "properties": { "NAME": "الشهباء للمراتب", "NAME_EN": null, "MAN_MADE": null, "LEISURE": null, "AMENITY": null, "OFFICE": null, "SHOP": "supermarket", "TOURISM": null, "SPORT": null, "OSM_TYPE": "node", "OSM_ID": 6854958435 }, "geometry": { "type": "Point", "coordinates": [ 32.5613527, 15.6385343 ] } },
{ "type": "Feature", "properties": { "NAME": "دكان أبوعبيدة - مرتضي", "NAME_EN": null, "MAN_MADE": null, "LEISURE": null, "AMENITY": null, "OFFICE": null, "SHOP": "supermarket", "TOURISM": null, "SPORT": null, "OSM_TYPE": "node", "OSM_ID": 6854978783 }, "geometry": { "type": "Point", "coordinates": [ 32.5597755, 15.6317102 ] } },
{ "type": "Feature", "properties": { "NAME": "تنزيل ماركت", "NAME_EN": null, "MAN_MADE": null, "LEISURE": null, "AMENITY": null, "OFFICE": null, "SHOP": "supermarket", "TOURISM": null, "SPORT": null, "OSM_TYPE": "node", "OSM_ID": 6854987511 }, "geometry": { "type": "Point", "coordinates": [ 32.5653116, 15.6428891 ] } },
{ "type": "Feature", "properties": { "NAME": "مصنع الكابتن", "NAME_EN": null, "MAN_MADE": null, "LEISURE": null, "AMENITY": null, "OFFICE": null, "SHOP": "supermarket", "TOURISM": null, "SPORT": null, "OSM_TYPE": "node", "OSM_ID": 6874662170 }, "geometry": { "type": "Point", "coordinates": [ 32.5768127, 15.6368122 ] } },
{ "type": "Feature", "properties": { "NAME": "العماد سوبر ماركت", "NAME_EN": null, "MAN_MADE": null, "LEISURE": null, "AMENITY": null, "OFFICE": null, "SHOP": "supermarket", "TOURISM": null, "SPORT": null, "OSM_TYPE": "node", "OSM_ID": 6874828332 }, "geometry": { "type": "Point", "coordinates": [ 32.5656891, 15.6355629 ] } },
{ "type": "Feature", "properties": { "NAME": "مركز مرافيء التجاري", "NAME_EN": null, "MAN_MADE": null, "LEISURE": null, "AMENITY": null, "OFFICE": null, "SHOP": "supermarket", "TOURISM": null, "SPORT": null, "OSM_TYPE": "node", "OSM_ID": 6874840543 }, "geometry": { "type": "Point", "coordinates": [ 32.5749359, 15.6321878 ] } },
{ "type": "Feature", "properties": { "NAME": "عزو للحلويات", "NAME_EN": null, "MAN_MADE": null, "LEISURE": null, "AMENITY": null, "OFFICE": null, "SHOP": "supermarket", "TOURISM": null, "SPORT": null, "OSM_TYPE": "node", "OSM_ID": 6874843695 }, "geometry": { "type": "Point", "coordinates": [ 32.5734367, 15.6220627 ] } },
{ "type": "Feature", "properties": { "NAME": "بقالة الرحاب", "NAME_EN": null, "MAN_MADE": null, "LEISURE": null, "AMENITY": null, "OFFICE": null, "SHOP": "supermarket", "TOURISM": null, "SPORT": null, "OSM_TYPE": "node", "OSM_ID": 6874849515 }, "geometry": { "type": "Point", "coordinates": [ 32.5701866, 15.6359377 ] } },
{ "type": "Feature", "properties": { "NAME": "بقالة ابو مصعب", "NAME_EN": null, "MAN_MADE": null, "LEISURE": null, "AMENITY": null, "OFFICE": null, "SHOP": "supermarket", "TOURISM": null, "SPORT": null, "OSM_TYPE": "node", "OSM_ID": 6874853581 }, "geometry": { "type": "Point", "coordinates": [ 32.5725632, 15.6413126 ] } },
{ "type": "Feature", "properties": { "NAME": "مفروشات نبهان السوري", "NAME_EN": null, "MAN_MADE": null, "LEISURE": null, "AMENITY": null, "OFFICE": null, "SHOP": "supermarket", "TOURISM": null, "SPORT": null, "OSM_TYPE": "node", "OSM_ID": 6874854250 }, "geometry": { "type": "Point", "coordinates": [ 32.5636864, 15.6364374 ] } },
{ "type": "Feature", "properties": { "NAME": "بقالة الكوثر", "NAME_EN": null, "MAN_MADE": null, "LEISURE": null, "AMENITY": null, "OFFICE": null, "SHOP": "supermarket", "TOURISM": null, "SPORT": null, "OSM_TYPE": "node", "OSM_ID": 6874857772 }, "geometry": { "type": "Point", "coordinates": [ 32.5664368, 15.6355629 ] } },
{ "type": "Feature", "properties": { "NAME": "كافوري سنتر 2", "NAME_EN": null, "MAN_MADE": null, "LEISURE": null, "AMENITY": null, "OFFICE": null, "SHOP": "supermarket", "TOURISM": null, "SPORT": null, "OSM_TYPE": "node", "OSM_ID": 6874862823 }, "geometry": { "type": "Point", "coordinates": [ 32.574688, 15.6361876 ] } },
{ "type": "Feature", "properties": { "NAME": "الطازة للمنتجات الحيوانية", "NAME_EN": null, "MAN_MADE": null, "LEISURE": null, "AMENITY": null, "OFFICE": null, "SHOP": "supermarket", "TOURISM": null, "SPORT": null, "OSM_TYPE": "node", "OSM_ID": 6874864316 }, "geometry": { "type": "Point", "coordinates": [ 32.5756874, 15.6386871 ] } },
{ "type": "Feature", "properties": { "NAME": "بقالة ابو مفيدة", "NAME_EN": null, "MAN_MADE": null, "LEISURE": null, "AMENITY": null, "OFFICE": null, "SHOP": "supermarket", "TOURISM": null, "SPORT": null, "OSM_TYPE": "node", "OSM_ID": 6874887041 }, "geometry": { "type": "Point", "coordinates": [ 32.5761871, 15.6454372 ] } },
{ "type": "Feature", "properties": { "NAME": "مركز القدس التجاري", "NAME_EN": null, "MAN_MADE": null, "LEISURE": null, "AMENITY": null, "OFFICE": null, "SHOP": "supermarket", "TOURISM": null, "SPORT": null, "OSM_TYPE": "node", "OSM_ID": 6874890774 }, "geometry": { "type": "Point", "coordinates": [ 32.5766869, 15.6425629 ] } },
{ "type": "Feature", "properties": { "NAME": "ابو التقي للتسوق", "NAME_EN": null, "MAN_MADE": null, "LEISURE": null, "AMENITY": null, "OFFICE": null, "SHOP": "supermarket", "TOURISM": null, "SPORT": null, "OSM_TYPE": "node", "OSM_ID": 6874893277 }, "geometry": { "type": "Point", "coordinates": [ 32.5819359, 15.6453123 ] } },
{ "type": "Feature", "properties": { "NAME": "بقالة الشريف", "NAME_EN": null, "MAN_MADE": null, "LEISURE": null, "AMENITY": null, "OFFICE": null, "SHOP": "supermarket", "TOURISM": null, "SPORT": null, "OSM_TYPE": "node", "OSM_ID": 6874895026 }, "geometry": { "type": "Point", "coordinates": [ 32.5760612, 15.6484375 ] } },
{ "type": "Feature", "properties": { "NAME": "بقالة النفيدي القسم", "NAME_EN": null, "MAN_MADE": null, "LEISURE": null, "AMENITY": null, "OFFICE": null, "SHOP": "supermarket", "TOURISM": null, "SPORT": null, "OSM_TYPE": "node", "OSM_ID": 6875015596 }, "geometry": { "type": "Point", "coordinates": [ 32.5435638, 15.6308126 ] } },
{ "type": "Feature", "properties": { "NAME": "بقالة السلام للمواد الغذائية", "NAME_EN": null, "MAN_MADE": null, "LEISURE": null, "AMENITY": null, "OFFICE": null, "SHOP": "supermarket", "TOURISM": null, "SPORT": null, "OSM_TYPE": "node", "OSM_ID": 6877066313 }, "geometry": { "type": "Point", "coordinates": [ 32.5476875, 15.6340628 ] } },
{ "type": "Feature", "properties": { "NAME": "مركز المثاني التجاري", "NAME_EN": null, "MAN_MADE": null, "LEISURE": null, "AMENITY": null, "OFFICE": null, "SHOP": "supermarket", "TOURISM": null, "SPORT": null, "OSM_TYPE": "node", "OSM_ID": 6877160253 }, "geometry": { "type": "Point", "coordinates": [ 32.5769386, 15.6616879 ] } },
{ "type": "Feature", "properties": { "NAME": "سوبر ماركت الراحة", "NAME_EN": null, "MAN_MADE": null, "LEISURE": null, "AMENITY": null, "OFFICE": null, "SHOP": "supermarket", "TOURISM": null, "SPORT": null, "OSM_TYPE": "node", "OSM_ID": 6877169319 }, "geometry": { "type": "Point", "coordinates": [ 32.5671745, 15.6637966 ] } },
{ "type": "Feature", "properties": { "NAME": "بقالة الحكمة", "NAME_EN": null, "MAN_MADE": null, "LEISURE": null, "AMENITY": null, "OFFICE": null, "SHOP": "supermarket", "TOURISM": null, "SPORT": null, "OSM_TYPE": "node", "OSM_ID": 6877200773 }, "geometry": { "type": "Point", "coordinates": [ 32.5791893, 15.6481876 ] } },
{ "type": "Feature", "properties": { "NAME": "بقالة المعونة", "NAME_EN": null, "MAN_MADE": null, "LEISURE": null, "AMENITY": null, "OFFICE": null, "SHOP": "supermarket", "TOURISM": null, "SPORT": null, "OSM_TYPE": "node", "OSM_ID": 6877213737 }, "geometry": { "type": "Point", "coordinates": [ 32.5699387, 15.6581879 ] } },
{ "type": "Feature", "properties": { "NAME": "بقالة ابرار", "NAME_EN": null, "MAN_MADE": null, "LEISURE": null, "AMENITY": null, "OFFICE": null, "SHOP": "supermarket", "TOURISM": null, "SPORT": null, "OSM_TYPE": "node", "OSM_ID": 6877218663 }, "geometry": { "type": "Point", "coordinates": [ 32.5759392, 15.6609373 ] } },
{ "type": "Feature", "properties": { "NAME": "سوبر ماركت الرضا", "NAME_EN": null, "MAN_MADE": null, "LEISURE": null, "AMENITY": null, "OFFICE": null, "SHOP": "supermarket", "TOURISM": null, "SPORT": null, "OSM_TYPE": "node", "OSM_ID": 6885473870 }, "geometry": { "type": "Point", "coordinates": [ 32.5231857, 15.6330624 ] } },
{ "type": "Feature", "properties": { "NAME": "الاحسان سوبر ماركت", "NAME_EN": null, "MAN_MADE": null, "LEISURE": null, "AMENITY": null, "OFFICE": null, "SHOP": "supermarket", "TOURISM": null, "SPORT": null, "OSM_TYPE": "node", "OSM_ID": 6885655079 }, "geometry": { "type": "Point", "coordinates": [ 32.5273132, 15.6413126 ] } },
{ "type": "Feature", "properties": { "NAME": "بقالة المشكاة", "NAME_EN": null, "MAN_MADE": null, "LEISURE": null, "AMENITY": null, "OFFICE": null, "SHOP": "supermarket", "TOURISM": null, "SPORT": null, "OSM_TYPE": "node", "OSM_ID": 6885655837 }, "geometry": { "type": "Point", "coordinates": [ 32.5235634, 15.6414375 ] } },
{ "type": "Feature", "properties": { "NAME": "دكان مرتضى ساتي", "NAME_EN": null, "MAN_MADE": null, "LEISURE": null, "AMENITY": null, "OFFICE": null, "SHOP": "supermarket", "TOURISM": null, "SPORT": null, "OSM_TYPE": "node", "OSM_ID": 6893202594 }, "geometry": { "type": "Point", "coordinates": [ 32.5299377, 15.6288128 ] } },
{ "type": "Feature", "properties": { "NAME": "دكان ضمره", "NAME_EN": null, "MAN_MADE": null, "LEISURE": null, "AMENITY": null, "OFFICE": null, "SHOP": "supermarket", "TOURISM": null, "SPORT": null, "OSM_TYPE": "node", "OSM_ID": 6893556323 }, "geometry": { "type": "Point", "coordinates": [ 32.5273132, 15.6308126 ] } },
{ "type": "Feature", "properties": { "NAME": "بقالة العربي", "NAME_EN": null, "MAN_MADE": null, "LEISURE": null, "AMENITY": null, "OFFICE": null, "SHOP": "supermarket", "TOURISM": null, "SPORT": null, "OSM_TYPE": "node", "OSM_ID": 6894859782 }, "geometry": { "type": "Point", "coordinates": [ 32.5313777, 15.6504916 ] } },
{ "type": "Feature", "properties": { "NAME": "سوبر ماركت شاكرين", "NAME_EN": null, "MAN_MADE": null, "LEISURE": null, "AMENITY": null, "OFFICE": null, "SHOP": "supermarket", "TOURISM": null, "SPORT": null, "OSM_TYPE": "node", "OSM_ID": 6894910419 }, "geometry": { "type": "Point", "coordinates": [ 32.531311, 15.6514378 ] } },
{ "type": "Feature", "properties": { "NAME": "ابو امنة للتسوق", "NAME_EN": null, "MAN_MADE": null, "LEISURE": null, "AMENITY": null, "OFFICE": null, "SHOP": "supermarket", "TOURISM": null, "SPORT": null, "OSM_TYPE": "node", "OSM_ID": 6894935175 }, "geometry": { "type": "Point", "coordinates": [ 32.5326654, 15.6556178 ] } },
{ "type": "Feature", "properties": { "NAME": "متجر البركة", "NAME_EN": null, "MAN_MADE": null, "LEISURE": null, "AMENITY": null, "OFFICE": null, "SHOP": "supermarket", "TOURISM": null, "SPORT": null, "OSM_TYPE": "node", "OSM_ID": 6894972964 }, "geometry": { "type": "Point", "coordinates": [ 32.533062, 15.6565628 ] } },
{ "type": "Feature", "properties": { "NAME": "بقالة نجود", "NAME_EN": null, "MAN_MADE": null, "LEISURE": null, "AMENITY": null, "OFFICE": null, "SHOP": "supermarket", "TOURISM": null, "SPORT": null, "OSM_TYPE": "node", "OSM_ID": 6894974513 }, "geometry": { "type": "Point", "coordinates": [ 32.5333138, 15.6571875 ] } },
{ "type": "Feature", "properties": { "NAME": "عمك بحر", "NAME_EN": null, "MAN_MADE": null, "LEISURE": null, "AMENITY": null, "OFFICE": null, "SHOP": "supermarket", "TOURISM": null, "SPORT": null, "OSM_TYPE": "node", "OSM_ID": 6895025138 }, "geometry": { "type": "Point", "coordinates": [ 32.5373116, 15.6685629 ] } },
{ "type": "Feature", "properties": { "NAME": "بقالة الحرمين", "NAME_EN": null, "MAN_MADE": null, "LEISURE": null, "AMENITY": null, "OFFICE": null, "SHOP": "supermarket", "TOURISM": null, "SPORT": null, "OSM_TYPE": "node", "OSM_ID": 6895035275 }, "geometry": { "type": "Point", "coordinates": [ 32.5369916, 15.6676355 ] } },
{ "type": "Feature", "properties": { "NAME": "سوبر ماركت ابو يس", "NAME_EN": null, "MAN_MADE": null, "LEISURE": null, "AMENITY": null, "OFFICE": null, "SHOP": "supermarket", "TOURISM": null, "SPORT": null, "OSM_TYPE": "node", "OSM_ID": 6895051300 }, "geometry": { "type": "Point", "coordinates": [ 32.5374374, 15.6688128 ] } },
{ "type": "Feature", "properties": { "NAME": "سوبر ماركت رحمة وحليمة", "NAME_EN": null, "MAN_MADE": null, "LEISURE": null, "AMENITY": null, "OFFICE": null, "SHOP": "supermarket", "TOURISM": null, "SPORT": null, "OSM_TYPE": "node", "OSM_ID": 6895103425 }, "geometry": { "type": "Point", "coordinates": [ 32.546936, 15.6871872 ] } },
{ "type": "Feature", "properties": { "NAME": "سوبر ماركت بلدة", "NAME_EN": null, "MAN_MADE": null, "LEISURE": null, "AMENITY": null, "OFFICE": null, "SHOP": "supermarket", "TOURISM": null, "SPORT": null, "OSM_TYPE": "node", "OSM_ID": 6898112926 }, "geometry": { "type": "Point", "coordinates": [ 32.6258687, 15.5974931 ] } },
{ "type": "Feature", "properties": { "NAME": "سوبر ماركت رزان", "NAME_EN": null, "MAN_MADE": null, "LEISURE": null, "AMENITY": null, "OFFICE": null, "SHOP": "supermarket", "TOURISM": null, "SPORT": null, "OSM_TYPE": "node", "OSM_ID": 6898448033 }, "geometry": { "type": "Point", "coordinates": [ 32.6222886, 15.6037587 ] } },
{ "type": "Feature", "properties": { "NAME": "سوبر ماركت التيسير", "NAME_EN": null, "MAN_MADE": null, "LEISURE": null, "AMENITY": null, "OFFICE": null, "SHOP": "supermarket", "TOURISM": null, "SPORT": null, "OSM_TYPE": "node", "OSM_ID": 6913345925 }, "geometry": { "type": "Point", "coordinates": [ 32.5773125, 15.6578121 ] } },
{ "type": "Feature", "properties": { "NAME": "بقالة نور الأبصار", "NAME_EN": null, "MAN_MADE": null, "LEISURE": null, "AMENITY": null, "OFFICE": null, "SHOP": "supermarket", "TOURISM": null, "SPORT": null, "OSM_TYPE": "node", "OSM_ID": 6913373372 }, "geometry": { "type": "Point", "coordinates": [ 32.5735626, 15.6484375 ] } },
{ "type": "Feature", "properties": { "NAME": "بقالة أبرار", "NAME_EN": null, "MAN_MADE": null, "LEISURE": null, "AMENITY": null, "OFFICE": null, "SHOP": "supermarket", "TOURISM": null, "SPORT": null, "OSM_TYPE": "node", "OSM_ID": 6913393221 }, "geometry": { "type": "Point", "coordinates": [ 32.5759392, 15.6609373 ] } },
{ "type": "Feature", "properties": { "NAME": "زمزم للدواجن", "NAME_EN": null, "MAN_MADE": null, "LEISURE": null, "AMENITY": null, "OFFICE": null, "SHOP": "supermarket", "TOURISM": null, "SPORT": null, "OSM_TYPE": "node", "OSM_ID": 6913407336 }, "geometry": { "type": "Point", "coordinates": [ 32.5506859, 15.6948128 ] } },
{ "type": "Feature", "properties": { "NAME": "ود البر ميني ماركت", "NAME_EN": null, "MAN_MADE": null, "LEISURE": null, "AMENITY": null, "OFFICE": null, "SHOP": "supermarket", "TOURISM": null, "SPORT": null, "OSM_TYPE": "node", "OSM_ID": 6913415739 }, "geometry": { "type": "Point", "coordinates": [ 32.548687, 15.6906872 ] } },
{ "type": "Feature", "properties": { "NAME": "دكان حاج منصور", "NAME_EN": null, "MAN_MADE": null, "LEISURE": null, "AMENITY": null, "OFFICE": null, "SHOP": "supermarket", "TOURISM": null, "SPORT": null, "OSM_TYPE": "node", "OSM_ID": 6913595517 }, "geometry": { "type": "Point", "coordinates": [ 32.5561867, 15.7004375 ] } },
{ "type": "Feature", "properties": { "NAME": "دكان برعي", "NAME_EN": null, "MAN_MADE": null, "LEISURE": null, "AMENITY": null, "OFFICE": null, "SHOP": "supermarket", "TOURISM": null, "SPORT": null, "OSM_TYPE": "node", "OSM_ID": 6913642759 }, "geometry": { "type": "Point", "coordinates": [ 32.5704384, 15.7158127 ] } },
{ "type": "Feature", "properties": { "NAME": "دكان وسام", "NAME_EN": null, "MAN_MADE": null, "LEISURE": null, "AMENITY": null, "OFFICE": null, "SHOP": "supermarket", "TOURISM": null, "SPORT": null, "OSM_TYPE": "node", "OSM_ID": 6913644197 }, "geometry": { "type": "Point", "coordinates": [ 32.5669365, 15.7164373 ] } },
{ "type": "Feature", "properties": { "NAME": "سوبر ماركت الواحة", "NAME_EN": null, "MAN_MADE": null, "LEISURE": null, "AMENITY": null, "OFFICE": null, "SHOP": "supermarket", "TOURISM": null, "SPORT": null, "OSM_TYPE": "node", "OSM_ID": 6913660914 }, "geometry": { "type": "Point", "coordinates": [ 32.5779381, 15.7113123 ] } },
{ "type": "Feature", "properties": { "NAME": "بقالة هاني", "NAME_EN": null, "MAN_MADE": null, "LEISURE": null, "AMENITY": null, "OFFICE": null, "SHOP": "supermarket", "TOURISM": null, "SPORT": null, "OSM_TYPE": "node", "OSM_ID": 6915272022 }, "geometry": { "type": "Point", "coordinates": [ 32.5490608, 15.7109375 ] } },
{ "type": "Feature", "properties": { "NAME": "دكان عمك فتحي", "NAME_EN": null, "MAN_MADE": null, "LEISURE": null, "AMENITY": null, "OFFICE": null, "SHOP": "supermarket", "TOURISM": null, "SPORT": null, "OSM_TYPE": "node", "OSM_ID": 6915520036 }, "geometry": { "type": "Point", "coordinates": [ 32.5513115, 15.7113123 ] } },
{ "type": "Feature", "properties": { "NAME": "بقالة زمزم", "NAME_EN": null, "MAN_MADE": null, "LEISURE": null, "AMENITY": null, "OFFICE": null, "SHOP": "supermarket", "TOURISM": null, "SPORT": null, "OSM_TYPE": "node", "OSM_ID": 6915568847 }, "geometry": { "type": "Point", "coordinates": [ 32.5538139, 15.7145624 ] } },
{ "type": "Feature", "properties": { "NAME": "دكان عمك الطيب", "NAME_EN": null, "MAN_MADE": null, "LEISURE": null, "AMENITY": null, "OFFICE": null, "SHOP": "supermarket", "TOURISM": null, "SPORT": null, "OSM_TYPE": "node", "OSM_ID": 6915582507 }, "geometry": { "type": "Point", "coordinates": [ 32.5593109, 15.7218122 ] } },
{ "type": "Feature", "properties": { "NAME": "بقالة الرشيد", "NAME_EN": null, "MAN_MADE": null, "LEISURE": null, "AMENITY": null, "OFFICE": null, "SHOP": "supermarket", "TOURISM": null, "SPORT": null, "OSM_TYPE": "node", "OSM_ID": 6915614803 }, "geometry": { "type": "Point", "coordinates": [ 32.5473137, 15.6938124 ] } },
{ "type": "Feature", "properties": { "NAME": "سوبر ماركت ودالجزيرة", "NAME_EN": null, "MAN_MADE": null, "LEISURE": null, "AMENITY": null, "OFFICE": null, "SHOP": "supermarket", "TOURISM": null, "SPORT": null, "OSM_TYPE": "node", "OSM_ID": 6932105698 }, "geometry": { "type": "Point", "coordinates": [ 32.5393143, 15.6298122 ] } },
{ "type": "Feature", "properties": { "NAME": "قوقل للتسوق", "NAME_EN": null, "MAN_MADE": null, "LEISURE": null, "AMENITY": null, "OFFICE": null, "SHOP": "supermarket", "TOURISM": null, "SPORT": null, "OSM_TYPE": "node", "OSM_ID": 6937910686 }, "geometry": { "type": "Point", "coordinates": [ 32.624813, 15.6382821 ] } },
{ "type": "Feature", "properties": { "NAME": "سوبر ماركت ابو امنة", "NAME_EN": null, "MAN_MADE": null, "LEISURE": null, "AMENITY": null, "OFFICE": null, "SHOP": "supermarket", "TOURISM": null, "SPORT": null, "OSM_TYPE": "node", "OSM_ID": 6942952640 }, "geometry": { "type": "Point", "coordinates": [ 32.5326881, 15.6556873 ] } },
{ "type": "Feature", "properties": { "NAME": "الاحسان سوبر ماركت", "NAME_EN": null, "MAN_MADE": null, "LEISURE": null, "AMENITY": null, "OFFICE": null, "SHOP": "supermarket", "TOURISM": null, "SPORT": null, "OSM_TYPE": "node", "OSM_ID": 6942962164 }, "geometry": { "type": "Point", "coordinates": [ 32.5425644, 15.6803122 ] } },
{ "type": "Feature", "properties": { "NAME": "بقالة عمك يوسف", "NAME_EN": null, "MAN_MADE": null, "LEISURE": null, "AMENITY": null, "OFFICE": null, "SHOP": "supermarket", "TOURISM": null, "SPORT": null, "OSM_TYPE": "node", "OSM_ID": 6942971064 }, "geometry": { "type": "Point", "coordinates": [ 32.5341873, 15.6651878 ] } },
{ "type": "Feature", "properties": { "NAME": "سوبر ماركت درة الاخلاص", "NAME_EN": null, "MAN_MADE": null, "LEISURE": null, "AMENITY": null, "OFFICE": null, "SHOP": "supermarket", "TOURISM": null, "SPORT": null, "OSM_TYPE": "node", "OSM_ID": 6942980800 }, "geometry": { "type": "Point", "coordinates": [ 32.5338135, 15.6571875 ] } },
{ "type": "Feature", "properties": { "NAME": "بقالة النيل و الفرات", "NAME_EN": null, "MAN_MADE": null, "LEISURE": null, "AMENITY": null, "OFFICE": null, "SHOP": "supermarket", "TOURISM": null, "SPORT": null, "OSM_TYPE": "node", "OSM_ID": 6943048981 }, "geometry": { "type": "Point", "coordinates": [ 32.5347501, 15.6613994 ] } },
{ "type": "Feature", "properties": { "NAME": "دكان سعيد", "NAME_EN": null, "MAN_MADE": null, "LEISURE": null, "AMENITY": null, "OFFICE": null, "SHOP": "supermarket", "TOURISM": null, "SPORT": null, "OSM_TYPE": "node", "OSM_ID": 6943128440 }, "geometry": { "type": "Point", "coordinates": [ 32.5478134, 15.690937 ] } },
{ "type": "Feature", "properties": { "NAME": "بقالة باب الريان", "NAME_EN": null, "MAN_MADE": null, "LEISURE": null, "AMENITY": null, "OFFICE": null, "SHOP": "supermarket", "TOURISM": null, "SPORT": null, "OSM_TYPE": "node", "OSM_ID": 6947293099 }, "geometry": { "type": "Point", "coordinates": [ 32.5544357, 15.7174377 ] } },
{ "type": "Feature", "properties": { "NAME": "دكان فتحي", "NAME_EN": null, "MAN_MADE": null, "LEISURE": null, "AMENITY": null, "OFFICE": null, "SHOP": "supermarket", "TOURISM": null, "SPORT": null, "OSM_TYPE": "node", "OSM_ID": 6947302378 }, "geometry": { "type": "Point", "coordinates": [ 32.5513115, 15.7113123 ] } },
{ "type": "Feature", "properties": { "NAME": "بقالة الريان", "NAME_EN": null, "MAN_MADE": null, "LEISURE": null, "AMENITY": null, "OFFICE": null, "SHOP": "supermarket", "TOURISM": null, "SPORT": null, "OSM_TYPE": "node", "OSM_ID": 6947310760 }, "geometry": { "type": "Point", "coordinates": [ 32.5564384, 15.7161875 ] } },
{ "type": "Feature", "properties": { "NAME": "دكان حاجة ليلى", "NAME_EN": null, "MAN_MADE": null, "LEISURE": null, "AMENITY": null, "OFFICE": null, "SHOP": "supermarket", "TOURISM": null, "SPORT": null, "OSM_TYPE": "node", "OSM_ID": 6947402675 }, "geometry": { "type": "Point", "coordinates": [ 32.5550613, 15.7006874 ] } },
{ "type": "Feature", "properties": { "NAME": "كوكاكولا مركز البيع المباشر - بحري", "NAME_EN": null, "MAN_MADE": null, "LEISURE": null, "AMENITY": null, "OFFICE": null, "SHOP": "supermarket", "TOURISM": null, "SPORT": null, "OSM_TYPE": "node", "OSM_ID": 6947423216 }, "geometry": { "type": "Point", "coordinates": [ 32.552063, 15.6976871 ] } },
{ "type": "Feature", "properties": { "NAME": "ود زايد للتسوق", "NAME_EN": null, "MAN_MADE": null, "LEISURE": null, "AMENITY": null, "OFFICE": null, "SHOP": "supermarket", "TOURISM": null, "SPORT": null, "OSM_TYPE": "node", "OSM_ID": 6947430699 }, "geometry": { "type": "Point", "coordinates": [ 32.5511856, 15.6951876 ] } },
{ "type": "Feature", "properties": { "NAME": "دكان طارق", "NAME_EN": null, "MAN_MADE": null, "LEISURE": null, "AMENITY": null, "OFFICE": null, "SHOP": "supermarket", "TOURISM": null, "SPORT": null, "OSM_TYPE": "node", "OSM_ID": 6947450859 }, "geometry": { "type": "Point", "coordinates": [ 32.5489388, 15.6983128 ] } },
{ "type": "Feature", "properties": { "NAME": "سوبر ماركت الثريا", "NAME_EN": null, "MAN_MADE": null, "LEISURE": null, "AMENITY": null, "OFFICE": null, "SHOP": "supermarket", "TOURISM": null, "SPORT": null, "OSM_TYPE": "node", "OSM_ID": 6947555206 }, "geometry": { "type": "Point", "coordinates": [ 32.5558128, 15.7030621 ] } },
{ "type": "Feature", "properties": { "NAME": "سوبر ماركت انوار المدينة", "NAME_EN": null, "MAN_MADE": null, "LEISURE": null, "AMENITY": null, "OFFICE": null, "SHOP": "supermarket", "TOURISM": null, "SPORT": null, "OSM_TYPE": "node", "OSM_ID": 6947555208 }, "geometry": { "type": "Point", "coordinates": [ 32.5576859, 15.7074375 ] } },
{ "type": "Feature", "properties": { "NAME": "ابو هاشم ميني ماركت", "NAME_EN": null, "MAN_MADE": null, "LEISURE": null, "AMENITY": null, "OFFICE": null, "SHOP": "supermarket", "TOURISM": null, "SPORT": null, "OSM_TYPE": "node", "OSM_ID": 6947561589 }, "geometry": { "type": "Point", "coordinates": [ 32.557312, 15.7056875 ] } },
{ "type": "Feature", "properties": { "NAME": "بقالة الظافر", "NAME_EN": null, "MAN_MADE": null, "LEISURE": null, "AMENITY": null, "OFFICE": null, "SHOP": "supermarket", "TOURISM": null, "SPORT": null, "OSM_TYPE": "node", "OSM_ID": 6947576286 }, "geometry": { "type": "Point", "coordinates": [ 32.5611877, 15.7133121 ] } },
{ "type": "Feature", "properties": { "NAME": "تايقر سوبر ماركت", "NAME_EN": null, "MAN_MADE": null, "LEISURE": null, "AMENITY": null, "OFFICE": null, "SHOP": "supermarket", "TOURISM": null, "SPORT": null, "OSM_TYPE": "node", "OSM_ID": 6947592515 }, "geometry": { "type": "Point", "coordinates": [ 32.5603142, 15.7169371 ] } },
{ "type": "Feature", "properties": { "NAME": "بشير النعيم سنتر", "NAME_EN": null, "MAN_MADE": null, "LEISURE": null, "AMENITY": null, "OFFICE": null, "SHOP": "supermarket", "TOURISM": null, "SPORT": null, "OSM_TYPE": "node", "OSM_ID": 6947606574 }, "geometry": { "type": "Point", "coordinates": [ 32.560936, 15.7175627 ] } },
{ "type": "Feature", "properties": { "NAME": "بقالة الصفوة", "NAME_EN": null, "MAN_MADE": null, "LEISURE": null, "AMENITY": null, "OFFICE": null, "SHOP": "supermarket", "TOURISM": null, "SPORT": null, "OSM_TYPE": "node", "OSM_ID": 6947694166 }, "geometry": { "type": "Point", "coordinates": [ 32.5555611, 15.7081871 ] } },
{ "type": "Feature", "properties": { "NAME": "دكان فريحة", "NAME_EN": null, "MAN_MADE": null, "LEISURE": null, "AMENITY": null, "OFFICE": null, "SHOP": "supermarket", "TOURISM": null, "SPORT": null, "OSM_TYPE": "node", "OSM_ID": 6947707599 }, "geometry": { "type": "Point", "coordinates": [ 32.5534363, 15.7124376 ] } },
{ "type": "Feature", "properties": { "NAME": "دكان محمد جبارة", "NAME_EN": null, "MAN_MADE": null, "LEISURE": null, "AMENITY": null, "OFFICE": null, "SHOP": "supermarket", "TOURISM": null, "SPORT": null, "OSM_TYPE": "node", "OSM_ID": 6947719203 }, "geometry": { "type": "Point", "coordinates": [ 32.5579376, 15.7091875 ] } },
{ "type": "Feature", "properties": { "NAME": "مركز زيزوم للخدمات", "NAME_EN": null, "MAN_MADE": null, "LEISURE": null, "AMENITY": null, "OFFICE": null, "SHOP": "supermarket", "TOURISM": null, "SPORT": null, "OSM_TYPE": "node", "OSM_ID": 6947728658 }, "geometry": { "type": "Point", "coordinates": [ 32.5519371, 15.6999378 ] } },
{ "type": "Feature", "properties": { "NAME": "بقالة الرحمة", "NAME_EN": null, "MAN_MADE": null, "LEISURE": null, "AMENITY": null, "OFFICE": null, "SHOP": "supermarket", "TOURISM": null, "SPORT": null, "OSM_TYPE": "node", "OSM_ID": 6947732747 }, "geometry": { "type": "Point", "coordinates": [ 32.5465622, 15.6968126 ] } },
{ "type": "Feature", "properties": { "NAME": "بقالة حاج الطاهر", "NAME_EN": null, "MAN_MADE": null, "LEISURE": null, "AMENITY": null, "OFFICE": null, "SHOP": "supermarket", "TOURISM": null, "SPORT": null, "OSM_TYPE": "node", "OSM_ID": 6947855151 }, "geometry": { "type": "Point", "coordinates": [ 32.534687, 15.666688 ] } },
{ "type": "Feature", "properties": { "NAME": "بوتيك نانا", "NAME_EN": null, "MAN_MADE": null, "LEISURE": null, "AMENITY": null, "OFFICE": null, "SHOP": "supermarket", "TOURISM": null, "SPORT": null, "OSM_TYPE": "node", "OSM_ID": 6947868452 }, "geometry": { "type": "Point", "coordinates": [ 32.5292657, 15.6530628 ] } },
{ "type": "Feature", "properties": { "NAME": "دكان بشة", "NAME_EN": null, "MAN_MADE": null, "LEISURE": null, "AMENITY": null, "OFFICE": null, "SHOP": "supermarket", "TOURISM": null, "SPORT": null, "OSM_TYPE": "node", "OSM_ID": 6947882960 }, "geometry": { "type": "Point", "coordinates": [ 32.5289928, 15.6572947 ] } },
{ "type": "Feature", "properties": { "NAME": "بوتيك ديرة دبي", "NAME_EN": null, "MAN_MADE": null, "LEISURE": null, "AMENITY": null, "OFFICE": null, "SHOP": "supermarket", "TOURISM": null, "SPORT": null, "OSM_TYPE": "node", "OSM_ID": 6947908359 }, "geometry": { "type": "Point", "coordinates": [ 32.5304375, 15.6560621 ] } },
{ "type": "Feature", "properties": { "NAME": "السمان للاعلاف", "NAME_EN": null, "MAN_MADE": null, "LEISURE": null, "AMENITY": null, "OFFICE": null, "SHOP": "supermarket", "TOURISM": null, "SPORT": null, "OSM_TYPE": "node", "OSM_ID": 6947909414 }, "geometry": { "type": "Point", "coordinates": [ 32.5231857, 15.651063 ] } },
{ "type": "Feature", "properties": { "NAME": "سوبر ماركت سوركتي", "NAME_EN": null, "MAN_MADE": null, "LEISURE": null, "AMENITY": null, "OFFICE": null, "SHOP": "supermarket", "TOURISM": null, "SPORT": null, "OSM_TYPE": "node", "OSM_ID": 6947927765 }, "geometry": { "type": "Point", "coordinates": [ 32.5225639, 15.642312 ] } },