{
"type": "FeatureCollection",
"name": "universities",
"crs": { "type": "name", "properties": { "name": "urn:ogc:def:crs:OGC:1.3:CRS84" } },
"features": [
{ "type": "Feature", "properties": { "NAME": "Faculty of Education, University of Khartoum", "NAME_EN": "University of Khartoum", "MAN_MADE": null, "LEISURE": null, "AMENITY": "university", "OFFICE": null, "SHOP": null, "TOURISM": null, "SPORT": null, "OSM_TYPE": "node", "OSM_ID": 5891843287 }, "geometry": { "type": "Point", "coordinates": [ 32.494009, 15.6697132 ] } },
{ "type": "Feature", "properties": { "NAME": "جامعة الرباط الوطني كلية المختبرات الطبية", "NAME_EN": null, "MAN_MADE": null, "LEISURE": null, "AMENITY": "university", "OFFICE": null, "SHOP": null, "TOURISM": null, "SPORT": null, "OSM_TYPE": "node", "OSM_ID": 6007368418 }, "geometry": { "type": "Point", "coordinates": [ 32.5612267, 15.6130939 ] } },
{ "type": "Feature", "properties": { "NAME": "جامعة الرباط الوطني كلية الطب", "NAME_EN": null, "MAN_MADE": null, "LEISURE": null, "AMENITY": "university", "OFFICE": null, "SHOP": null, "TOURISM": null, "SPORT": null, "OSM_TYPE": "node", "OSM_ID": 6007374687 }, "geometry": { "type": "Point", "coordinates": [ 32.5587906, 15.6134163 ] } },
{ "type": "Feature", "properties": { "NAME": "African And Asian Studies Institute", "NAME_EN": null, "MAN_MADE": null, "LEISURE": null, "AMENITY": "university", "OFFICE": null, "SHOP": null, "TOURISM": null, "SPORT": null, "OSM_TYPE": "node", "OSM_ID": 6010612305 }, "geometry": { "type": "Point", "coordinates": [ 32.5403468, 15.6086216 ] } },
{ "type": "Feature", "properties": { "NAME": "كلية الدراسات العليا - جامعة الخرطوم", "NAME_EN": null, "MAN_MADE": null, "LEISURE": null, "AMENITY": "university", "OFFICE": null, "SHOP": null, "TOURISM": null, "SPORT": null, "OSM_TYPE": "node", "OSM_ID": 6010612306 }, "geometry": { "type": "Point", "coordinates": [ 32.5407247, 15.6085315 ] } },
{ "type": "Feature", "properties": { "NAME": "وحدة الترجمة والتعريب -كلية الاداب", "NAME_EN": null, "MAN_MADE": null, "LEISURE": null, "AMENITY": "university", "OFFICE": null, "SHOP": null, "TOURISM": null, "SPORT": null, "OSM_TYPE": "node", "OSM_ID": 6010612311 }, "geometry": { "type": "Point", "coordinates": [ 32.5375459, 15.6081671 ] } },
{ "type": "Feature", "properties": { "NAME": "المركز القومي للدراسات المحاسبية", "NAME_EN": "National Center for Accounting Studies", "MAN_MADE": null, "LEISURE": null, "AMENITY": "university", "OFFICE": null, "SHOP": null, "TOURISM": null, "SPORT": null, "OSM_TYPE": "node", "OSM_ID": 6018330513 }, "geometry": { "type": "Point", "coordinates": [ 32.5383149, 15.6068711 ] } },
{ "type": "Feature", "properties": { "NAME": "School Of Managerial Studies", "NAME_EN": null, "MAN_MADE": null, "LEISURE": null, "AMENITY": "university", "OFFICE": null, "SHOP": null, "TOURISM": null, "SPORT": null, "OSM_TYPE": "node", "OSM_ID": 6025049158 }, "geometry": { "type": "Point", "coordinates": [ 32.5399536, 15.6079239 ] } },
{ "type": "Feature", "properties": { "NAME": "جامعة السودان المفتوحه", "NAME_EN": null, "MAN_MADE": null, "LEISURE": null, "AMENITY": "university", "OFFICE": null, "SHOP": null, "TOURISM": null, "SPORT": null, "OSM_TYPE": "node", "OSM_ID": 6795031287 }, "geometry": { "type": "Point", "coordinates": [ 32.4959369, 15.6429007 ] } },
{ "type": "Feature", "properties": { "NAME": "جامعة امدرمان الإسلامية - كلية الهندسة", "NAME_EN": null, "MAN_MADE": null, "LEISURE": null, "AMENITY": "university", "OFFICE": null, "SHOP": null, "TOURISM": null, "SPORT": null, "OSM_TYPE": "node", "OSM_ID": 6796346200 }, "geometry": { "type": "Point", "coordinates": [ 32.4451887, 15.5718466 ] } },
{ "type": "Feature", "properties": { "NAME": "جامعة العلوم والتقان", "NAME_EN": null, "MAN_MADE": null, "LEISURE": null, "AMENITY": "university", "OFFICE": null, "SHOP": null, "TOURISM": null, "SPORT": null, "OSM_TYPE": "node", "OSM_ID": 6796486007 }, "geometry": { "type": "Point", "coordinates": [ 32.486513, 15.6714135 ] } },
{ "type": "Feature", "properties": { "NAME": "جامعة العلوم الطبية مأمون حميدة", "NAME_EN": null, "MAN_MADE": null, "LEISURE": null, "AMENITY": "university", "OFFICE": null, "SHOP": null, "TOURISM": null, "SPORT": null, "OSM_TYPE": "node", "OSM_ID": 6802150894 }, "geometry": { "type": "Point", "coordinates": [ 32.557428, 15.5763651 ] } },
{ "type": "Feature", "properties": { "NAME": "جامعة امدرمان الاسلامية كلية العلوم الهدسية", "NAME_EN": null, "MAN_MADE": null, "LEISURE": null, "AMENITY": "university", "OFFICE": null, "SHOP": null, "TOURISM": null, "SPORT": null, "OSM_TYPE": "node", "OSM_ID": 6943065127 }, "geometry": { "type": "Point", "coordinates": [ 32.4459847, 15.5717135 ] } },
{ "type": "Feature", "properties": { "NAME": "جامعة امدرمان الاسلامية كلية العلوم الادارية", "NAME_EN": null, "MAN_MADE": null, "LEISURE": null, "AMENITY": "university", "OFFICE": null, "SHOP": null, "TOURISM": null, "SPORT": null, "OSM_TYPE": "node", "OSM_ID": 6943065128 }, "geometry": { "type": "Point", "coordinates": [ 32.4517004, 15.5778108 ] } },
{ "type": "Feature", "properties": { "NAME": "جامعة ام درمان الإسلامية - هندسة", "NAME_EN": null, "MAN_MADE": null, "LEISURE": null, "AMENITY": "university", "OFFICE": null, "SHOP": null, "TOURISM": null, "SPORT": null, "OSM_TYPE": "node", "OSM_ID": 6960765092 }, "geometry": { "type": "Point", "coordinates": [ 32.446064, 15.5715628 ] } },
{ "type": "Feature", "properties": { "NAME": "جامعة السودان - كلية الطب البيطري", "NAME_EN": null, "MAN_MADE": null, "LEISURE": null, "AMENITY": "university", "OFFICE": null, "SHOP": null, "TOURISM": null, "SPORT": null, "OSM_TYPE": "node", "OSM_ID": 6979432577 }, "geometry": { "type": "Point", "coordinates": [ 32.5918121, 15.6201878 ] } },
{ "type": "Feature", "properties": { "NAME": "جامعة الرازي - الازهري", "NAME_EN": null, "MAN_MADE": null, "LEISURE": null, "AMENITY": "university", "OFFICE": null, "SHOP": null, "TOURISM": null, "SPORT": null, "OSM_TYPE": "node", "OSM_ID": 7095724989 }, "geometry": { "type": "Point", "coordinates": [ 32.5926857, 15.5123129 ] } },
{ "type": "Feature", "properties": { "NAME": "جامعة الرباط - كلية الحاسوب", "NAME_EN": null, "MAN_MADE": null, "LEISURE": null, "AMENITY": "university", "OFFICE": null, "SHOP": null, "TOURISM": null, "SPORT": null, "OSM_TYPE": "node", "OSM_ID": 7398352528 }, "geometry": { "type": "Point", "coordinates": [ 32.5760827, 15.5855685 ] } },
{ "type": "Feature", "properties": { "NAME": "كلية مكة التقنية لطب العيون", "NAME_EN": null, "MAN_MADE": null, "LEISURE": null, "AMENITY": "university", "OFFICE": null, "SHOP": null, "TOURISM": null, "SPORT": null, "OSM_TYPE": "node", "OSM_ID": 10607635112 }, "geometry": { "type": "Point", "coordinates": [ 32.499658, 15.6430506 ] } }
]
}
